City_ID,City,Lat,Lng,Max Temp,Humidity,Cloudiness,Wind Speed,Country,Date
0,bethel,41.3712,-73.414,-0.27,55,0,1.54,US,1707193158
1,aasiaat,68.7098,-52.8699,-29.07,85,78,4.12,GL,1707193346
2,arvika,59.6553,12.5852,-9.66,95,85,1.14,SE,1707193346
3,mejit,10.2753,170.8646,26.84,81,37,8.18,MH,1707193347
4,saint-francois,46.4154,3.9054,4.25,100,100,1.03,FR,1707193347
5,livingston,55.9029,-3.5226,6.23,90,100,4.63,GB,1707193347
6,edinburgh of the seven seas,-37.0676,-12.3116,15.6,64,0,2.3,SH,1707193348
7,lebu,-37.6167,-73.65,15.68,95,92,2.03,CL,1707193348
8,takoradi,4.8845,-1.7554,25.69,93,12,1.61,GH,1707192717
9,puerto natales,-51.7236,-72.4875,8.43,79,97,1.83,CL,1707193122
10,nizhneudinsk,54.9076,99.0276,-4.09,77,93,1.08,RU,1707193349
11,anadyr,64.75,177.4833,-23.72,84,75,6.0,RU,1707193349
12,grytviken,-54.2811,-36.5092,6.31,92,35,7.54,GS,1707193350
13,uliastay,47.7417,96.8444,-14.16,63,91,0.95,MN,1707193350
14,hilo,19.7297,-155.09,19.6,91,99,1.34,US,1707193088
15,stanley,54.868,-1.6985,10.16,85,75,5.66,GB,1707193351
16,puerto ayora,-0.7393,-90.3518,25.86,94,51,1.79,EC,1707193351
17,enewetak,11.3474,162.3373,26.83,73,99,6.43,MH,1707193351
18,west end,26.6833,-78.9667,16.99,83,98,6.6,BS,1707193352
19,guerrero negro,27.9769,-114.0611,16.15,70,43,2.38,MX,1707193352
20,souillac,-20.5167,57.5167,26.3,69,40,5.14,MU,1707193352
21,waitangi,-43.9535,-176.5597,18.79,87,97,8.34,NZ,1707193352
22,port-aux-francais,-49.35,70.2167,5.91,75,100,12.6,TF,1707193353
23,bredasdorp,-34.5322,20.0403,20.16,84,91,1.43,ZA,1707193353
24,tual,-5.6667,132.75,28.18,77,100,8.14,ID,1707193353
25,papao,-17.75,-149.55,27.82,88,100,12.4,PF,1707193354
26,tazovsky,67.4667,78.7,-23.5,100,99,5.38,RU,1707193354
27,tsiombe,-25.3,45.4833,22.83,93,53,1.5,MG,1707193354
28,namibe,-15.1961,12.1522,24.57,81,100,1.66,AO,1707193355
29,pandan,14.0453,124.1694,27.8,70,64,5.93,PH,1707193355
30,brooks,50.5834,-111.8851,-11.21,91,100,0.51,CA,1707193201
31,pisco,-13.7,-76.2167,25.03,83,100,5.66,PE,1707193356
32,garwolin,51.8975,21.6147,8.51,78,100,6.26,PL,1707193356
33,invercargill,-46.4,168.35,15.13,99,100,1.24,NZ,1707193356
34,atafu village,-8.5421,-172.5159,27.8,84,100,14.45,TK,1707193356
35,adamstown,-25.066,-130.1015,24.25,83,99,4.42,PN,1707193357
36,tiksi,71.6872,128.8694,-27.89,88,99,1.35,RU,1707193357
37,smithers,54.7804,-127.1743,-4.82,86,75,1.03,CA,1707193357
38,polyarnyy,69.1989,33.4478,-17.85,100,100,4.19,RU,1707193358
39,hawaiian paradise park,19.5933,-154.9731,20.73,85,75,3.09,US,1707193358
40,kamina,-8.7386,24.9906,18.13,90,100,0.52,CD,1707193359
41,cooma,-36.2333,149.1333,19.08,68,93,4.37,AU,1707193359
42,longyearbyen,78.2186,15.6401,-5.09,63,40,5.14,SJ,1707193359
43,buka,40.8108,69.1986,6.87,37,100,2.29,UZ,1707193360
44,taghazout,30.5426,-9.7112,11.43,46,99,3.38,MA,1707193360
45,dampit,-8.2116,112.7493,29.95,60,66,2.63,ID,1707193360
46,ancud,-41.8697,-73.8203,14.09,94,100,3.02,CL,1707193360
47,qaqortoq,60.7167,-46.0333,-21.24,68,0,2.98,GL,1707193361
48,hithadhoo,-0.6,73.0833,28.25,75,64,3.65,MV,1707193361
49,sao joao da barra,-21.6403,-41.0511,24.48,92,100,3.12,BR,1707193361
50,olonkinbyen,70.9221,-8.7187,-1.84,69,73,5.08,SJ,1707193361
51,harper,4.375,-7.7169,26.52,80,45,1.2,LR,1707193362
52,college,64.8569,-147.8028,-24.39,78,40,0.0,US,1707193362
53,blackmans bay,-43.0167,147.3167,20.41,40,91,2.24,AU,1707193363
54,punta arenas,-53.15,-70.9167,11.06,66,75,7.2,CL,1707193363
55,qashyr,53.0675,76.1036,-4.31,84,100,5.01,KZ,1707193363
56,par naogaon,24.8029,88.9508,20.24,62,95,0.63,BD,1707193363
57,caraballeda,10.6112,-66.8522,27.04,78,93,1.54,VE,1707193364
58,unnao,26.5333,80.5,13.99,75,98,2.31,IN,1707193364
59,lospalos,-8.5186,127.0025,27.4,76,99,0.83,TL,1707193364
60,st. john's,47.5649,-52.7093,1.66,97,100,8.75,CA,1707193365
61,iqaluit,63.7506,-68.5145,-14.15,77,75,1.03,CA,1707193365
62,nouadhibou,20.931,-17.0347,19.99,32,1,7.2,MR,1707193365
63,haiku-pauwela,20.9219,-156.3051,22.25,69,40,7.72,US,1707193366
64,shelton,41.3165,-73.0932,1.34,51,0,5.14,US,1707193235
65,tura,25.5198,90.2201,21.34,44,48,1.76,IN,1707193367
66,swift current,50.2834,-107.8014,-6.55,93,100,3.6,CA,1707193367
67,horki,54.2861,30.9842,-3.85,89,98,5.65,BY,1707193368
68,whitehorse,60.7161,-135.0538,-18.44,79,100,1.03,CA,1707193169
69,georgetown,5.4112,100.3354,30.97,70,20,3.6,MY,1707193368
70,remire-montjoly,4.9167,-52.2667,27.02,89,75,2.06,GF,1707193369
71,fort mcmurray,56.7268,-111.381,-14.23,72,0,3.09,CA,1707193369
72,lihue,21.9789,-159.3672,23.58,71,40,10.29,US,1707193369
73,klyuchi,52.2667,79.1667,-7.41,88,92,4.51,RU,1707193370
74,new norfolk,-42.7826,147.0587,21.07,32,84,4.45,AU,1707193370
75,myitkyina,25.3833,97.4,20.57,58,47,1.28,MM,1707193370
76,sitka,57.0531,-135.33,2.94,87,40,0.0,US,1707193327
77,tazacorte,28.629,-17.9293,18.42,27,0,3.13,ES,1707193371
78,belmonte,-15.8631,-38.8828,25.39,86,31,1.31,BR,1707193371
79,kirakira,-10.4544,161.9205,29.97,74,44,5.88,SB,1707193371
80,vernon,50.2581,-119.2691,1.53,93,100,0.0,CA,1707193372
81,usogorsk,63.4106,48.6872,-20.19,97,100,2.04,RU,1707193372
82,alta,69.9689,23.2717,-16.41,78,94,4.12,NO,1707193372
83,arbelaez,4.2725,-74.4151,19.01,92,99,0.82,CO,1707193373
84,al bayda',32.7627,21.7551,10.02,88,87,5.89,LY,1707193373
85,vorgashor,67.5833,63.95,-22.23,96,86,2.8,RU,1707193374
86,albany,42.6001,-73.9662,-3.11,60,0,0.89,US,1707193116
87,feicheng,35.2606,117.9675,0.9,53,100,0.93,CN,1707193374
88,talnakh,69.4865,88.3972,-25.85,90,28,2.63,RU,1707193375
89,ribeira grande,38.5167,-28.7,18.21,95,100,7.15,PT,1707193375
90,ataq,14.5377,46.8319,15.97,67,3,3.76,YE,1707193375
91,arraial do cabo,-22.9661,-42.0278,24.49,91,81,4.17,BR,1707193238
92,wailua homesteads,22.0669,-159.378,23.24,72,40,10.29,US,1707193376
93,kayangel,8.0823,134.7173,27.43,83,100,9.31,PW,1707193376
94,dalandzadgad,43.5708,104.425,-9.96,70,17,1.38,MN,1707193377
95,brunsbuttel,53.9,9.15,9.66,87,100,4.47,DE,1707193377
96,luderitz,-26.6481,15.1594,17.89,88,15,2.6,NA,1707193377
97,west island,-12.1568,96.8225,28.99,74,40,4.63,CC,1707193378
98,touros,-5.1989,-35.4608,26.85,79,72,4.38,BR,1707193378
99,posto fiscal rolim de moura,-13.0833,-62.2667,22.96,88,95,1.22,BR,1707193378
100,akobo,7.4344,3.9497,22.09,22,26,2.26,NG,1707193379
101,yaren,-0.5472,166.916,29.06,72,92,6.36,NR,1707193379
102,glace bay,46.1969,-59.957,0.54,97,100,9.26,CA,1707193379
103,isafjordur,66.0755,-23.124,-8.53,75,99,5.8,IS,1707193380
104,pacific grove,36.6177,-121.9166,10.24,87,100,0.0,US,1707193380
105,ushuaia,-54.8,-68.3,11.81,47,0,8.23,AR,1707193380
106,keflavik,64.0049,-22.5624,-6.76,63,40,7.72,IS,1707193381
107,bilibino,68.0546,166.4372,-34.59,100,100,0.87,RU,1707193381
108,lazaro cardenas,17.9583,-102.2,23.31,84,0,1.66,MX,1707193381
109,labrador city,52.9463,-66.9114,-29.05,69,0,1.03,CA,1707193382
110,mao,39.8885,4.2658,10.31,100,100,1.54,ES,1707193382
111,nizhniy kuranakh,58.8353,125.4869,-15.41,83,60,0.76,RU,1707193382
112,montevideo,-34.8335,-56.1674,21.84,73,0,4.63,UY,1707193383
113,zouerate,22.7187,-12.4521,14.55,18,47,4.15,MR,1707193383
114,burang,30.25,81.1667,-9.5,40,10,4.36,CN,1707193384
115,margaret river,-33.95,115.0667,23.75,44,8,2.86,AU,1707193384
116,villa gesell,-37.2639,-56.973,21.7,78,66,7.54,AR,1707193199
117,jamestown,42.097,-79.2353,-3.08,91,0,4.63,US,1707193385
118,mokhsogollokh,61.4681,128.9203,-30.99,99,82,0.35,RU,1707193385
119,colonia,50.9333,6.95,11.09,71,100,4.12,DE,1707193330
120,manavalakurichi,8.1333,77.3,28.25,54,33,5.07,IN,1707193386
121,petropavlovsk-kamchatsky,53.0452,158.6483,-4.67,74,75,2.68,RU,1707193386
122,badger,64.8,-147.5333,-24.44,79,40,0.0,US,1707193386
123,port lincoln,-34.7333,135.8667,19.82,49,0,5.79,AU,1707193387
124,kalyazin,57.2403,37.8433,-13.51,97,99,0.46,RU,1707193387
125,ghat,24.9647,10.1728,7.85,50,17,0.96,LY,1707193387
126,fort st. john,56.2499,-120.8529,-7.06,68,75,3.09,CA,1707193388
127,yanahuanca,-10.5167,-76.4986,5.26,95,99,2.01,PE,1707193388
128,jacmel,18.2342,-72.5347,26.91,87,97,2.54,HT,1707193388
129,susuman,62.7833,148.1667,-25.57,85,99,1.34,RU,1707193389
130,shingu,33.7333,135.9833,11.15,44,2,2.55,JP,1707193389
131,villamontes,-21.25,-63.5,21.39,89,75,2.11,BO,1707193390
132,arkhangel'sk,64.5401,40.5433,-24.93,83,40,1.0,RU,1707193390
133,papatowai,-46.5619,169.4708,15.06,98,100,2.08,NZ,1707193375
134,carnarvon,-24.8667,113.6333,34.32,30,7,8.35,AU,1707193391
135,broken hill,-31.95,141.4333,26.49,19,4,9.11,AU,1707193391
136,leninskoye,41.7589,69.3864,4.44,65,100,4.09,KZ,1707193391
137,yellowknife,62.456,-114.3525,-28.66,91,40,1.54,CA,1707193392
138,awjilah,29.1081,21.2869,11.64,87,0,2.83,LY,1707193392
139,machico,32.7,-16.7667,18.35,68,20,4.12,PT,1707193392
140,ta`u,-14.2336,-169.5144,28.6,71,90,1.37,AS,1707193393
141,beloyarskiy,63.7119,66.6722,-17.77,99,99,1.37,RU,1707193393
142,torghay,49.6339,63.4981,-2.4,90,100,7.95,KZ,1707193394
143,bel ombre,-4.6167,55.4167,29.91,70,20,2.57,SC,1707193394
144,sao gabriel da cachoeira,-0.1303,-67.0892,23.35,98,100,0.4,BR,1707193394
145,porto novo,6.4965,2.6036,24.9,54,4,2.03,BJ,1707193395
146,sinop,41.7711,34.8709,6.63,87,93,4.18,TR,1707193395
147,wudil,11.8107,8.8451,16.38,22,22,3.79,NG,1707193395
148,toliara,-23.35,43.6667,25.91,79,3,3.59,MG,1707193396
149,port mathurin,-19.6833,63.4167,26.49,58,94,5.36,MU,1707193396
150,darwin,-12.4611,130.8418,35.03,71,40,8.75,AU,1707193048
151,thompson,55.7435,-97.8558,-6.91,86,100,8.23,CA,1707193397
152,ishpeming,46.4885,-87.6676,2.49,99,100,1.56,US,1707193397
153,port pirie,-33.1833,138.0167,26.44,28,0,7.56,AU,1707193207
154,scalby,53.7667,-0.7167,12.28,77,100,9.43,GB,1707193398
155,broome,42.2506,-75.833,-2.68,78,0,3.6,US,1707193398
156,horta,38.5333,-28.6333,17.79,95,100,7.15,PT,1707193399
157,port elizabeth,-33.918,25.5701,21.29,96,75,1.54,ZA,1707193399
158,richards bay,-28.783,32.0377,22.01,88,21,1.21,ZA,1707193399
159,mount gambier,-37.8333,140.7667,20.95,39,0,4.76,AU,1707193400
160,avarua,-21.2078,-159.775,29.03,79,40,6.17,CK,1707193400
161,kununurra,-15.7667,128.7333,30.99,62,75,9.77,AU,1707193401
162,bamboo flat,11.7,92.7167,27.05,74,39,3.6,IN,1707193401
163,hulan,45.9833,126.6,-10.94,78,100,2.35,CN,1707193402
164,constantia,44.1833,28.65,5.39,82,52,5.92,RO,1707193402
165,sisimiut,66.9395,-53.6735,-17.25,72,73,6.61,GL,1707193402
166,saint-joseph,-21.3667,55.6167,25.21,74,74,2.91,RE,1707193403
167,bac lieu,9.285,105.7244,29.67,64,27,5.6,VN,1707193403
168,qamdo,31.1667,97.2333,-3.69,27,58,3.36,CN,1707193403
169,hovd,48.0056,91.6419,-17.66,87,25,1.14,MN,1707193404
170,tommot,58.9564,126.2925,-18.73,87,48,0.19,RU,1707193404
171,kindu,-2.95,25.95,20.56,97,100,1.11,CD,1707193404
172,severo-yeniseyskiy,60.3725,93.0408,-11.35,95,73,2.24,RU,1707193404
173,dwarka,22.2394,68.9678,23.14,68,0,2.52,IN,1707193405
174,ilulissat,69.2167,-51.1,-19.99,50,17,1.54,GL,1707193405
175,nueva gerona,21.8833,-82.8,20.67,66,73,13.49,CU,1707193405
176,afaahiti,-17.75,-149.2833,26.93,91,100,12.31,PF,1707193406
177,velingara,13.15,-14.1167,23.6,18,0,0.94,SN,1707193406
178,mount isa,-20.7333,139.5,36.87,39,40,3.09,AU,1707193406
179,patong,7.8961,98.2966,31.08,68,60,0.76,TH,1707193407
180,khilchipur,24.0333,76.5667,20.61,68,7,1.45,IN,1707193407
181,masterton,-40.9597,175.6575,25.61,17,26,3.78,NZ,1707193251
182,cockburn town,21.4612,-71.1419,26.12,77,56,9.97,TC,1707193408
183,tromso,69.6496,18.957,-9.99,85,70,0.0,NO,1707193408
184,whangarei,-35.7317,174.3239,26.39,47,0,2.32,NZ,1707193408
185,byron bay,-28.65,153.6167,33.17,62,12,5.98,AU,1707193409
186,kruisfontein,-34.0033,24.7314,19.38,82,85,1.57,ZA,1707193309
187,port alfred,-33.5906,26.891,20.66,98,82,4.02,ZA,1707193409
188,tallulah,32.4085,-91.1868,11.0,71,0,2.06,US,1707193410
189,crucecita,-28.95,-58.9833,29.31,52,50,4.12,AR,1707193410
190,tokar,18.4254,37.729,22.26,61,100,5.24,SD,1707193410
191,sotnikovskoye,45.0039,43.7772,2.19,66,59,12.84,RU,1707193410
192,timbuktu,16.7735,-3.0074,16.81,16,0,5.44,ML,1707193411
193,tangalle,6.024,80.7911,27.38,67,76,6.05,LK,1707193211
194,cabo san lucas,22.8909,-109.9124,23.2,57,96,4.02,MX,1707192840
195,whakatane,-37.9585,176.9854,25.49,74,1,1.34,NZ,1707193412
196,sao jose da coroa grande,-8.8978,-35.1478,25.89,82,57,1.17,BR,1707193412
197,bocana de paiwas,12.7857,-85.1227,22.25,92,84,2.58,NI,1707193412
198,kisanga,-7.4362,37.7034,23.36,96,89,0.55,TZ,1707193413
199,dhuusamarreeb,5.535,46.3861,23.37,68,77,5.68,SO,1707193413
200,argo,37.6333,22.7333,11.17,47,0,2.07,GR,1707193413
201,coquimbo,-29.9533,-71.3436,17.85,94,0,1.54,CL,1707193165
202,melfi,40.9965,15.6514,8.61,89,43,3.09,IT,1707193414
203,ratnagiri,16.9833,73.3,29.24,39,0,1.4,IN,1707193414
204,katsuura,35.1333,140.3,6.01,96,100,7.55,JP,1707193415
205,el hadjira,32.6134,5.5126,10.79,46,7,2.68,DZ,1707193415
206,nioki,-2.7167,17.6833,20.9,97,99,1.55,CD,1707193415
207,san patricio,28.017,-97.5169,14.35,76,0,2.79,US,1707193416
208,kapuskasing,49.4169,-82.4331,-2.95,93,100,2.06,CA,1707193416
209,fiambala,-27.6871,-67.6149,22.42,55,100,1.48,AR,1707193416
210,cannonvale,-20.2833,148.7,30.66,62,92,4.24,AU,1707193417
211,kapa'a,22.0752,-159.319,23.99,71,40,10.29,US,1707193417
212,iskateley,67.6803,53.1512,-18.88,97,100,1.79,RU,1707193379
213,margate,51.3813,1.3862,11.61,80,100,7.6,GB,1707193417
214,zinder,13.8072,8.9881,14.68,19,30,6.55,NE,1707193418
215,hermanus,-34.4187,19.2345,21.0,89,92,2.16,ZA,1707193418
216,bandon,51.7469,-8.7425,10.77,88,81,9.37,IE,1707193419
217,ejutla de crespo,16.5667,-96.7333,15.29,85,8,2.36,MX,1707193419
218,shimoda,34.6667,138.95,7.2,95,100,5.61,JP,1707193419
219,dawson creek,55.7666,-120.2362,-8.2,86,0,1.54,CA,1707193420
220,kingscliff,-28.2667,153.5667,32.63,70,15,6.17,AU,1707193420
221,bodaybo,57.8506,114.1933,-7.45,94,100,1.58,RU,1707193421
222,ust'-kulom,61.6864,53.6902,-17.26,98,100,0.76,RU,1707193421
223,guankou,28.15,113.6333,0.89,97,100,0.99,CN,1707193422
224,ulsteinvik,62.3432,5.8487,-1.25,81,45,1.79,NO,1707193422
225,fasa,28.9383,53.6482,-4.42,58,0,3.09,IR,1707193422
226,amga,60.8953,131.9608,-25.53,95,94,0.43,RU,1707193422
227,burabay,53.0838,70.3138,-2.85,90,100,8.3,KZ,1707193423
228,taoudenni,22.6783,-3.9836,17.51,15,100,4.3,ML,1707193423
229,lamu,-2.2717,40.902,26.4,86,51,4.33,KE,1707193423
230,khovd,48.0056,91.6419,-17.66,87,25,1.14,MN,1707193275
231,partizansk,43.1258,133.1339,-2.7,38,100,1.46,RU,1707193424
232,utrik,11.2278,169.8474,26.48,83,39,8.77,MH,1707193389
233,praia da vitoria,38.7333,-27.0667,18.2,82,20,8.23,PT,1707193425
234,dudinka,69.4058,86.1778,-28.51,98,50,1.79,RU,1707193425
235,bucerias,20.75,-105.3333,20.99,88,0,0.0,MX,1707193425
236,neufchatel-en-bray,49.7332,1.4396,9.84,79,100,7.56,FR,1707193425
237,kingston,17.997,-76.7936,24.53,93,75,4.12,JM,1707193383
238,nianzishan,47.5167,122.8833,-8.62,61,48,1.46,CN,1707193426
239,wabag,-5.4781,143.7021,19.34,79,98,1.07,PG,1707193426
240,bella vista,36.4295,-94.2316,6.51,70,0,2.06,US,1707193427
241,lewistown,40.5992,-77.5714,-0.59,96,0,0.0,US,1707193427
242,berezovyy,51.6667,135.7,-12.24,66,2,1.1,RU,1707193427
243,san luis de la loma,17.2706,-100.8939,23.55,86,5,2.1,MX,1707193428
244,vorkuta,67.5,64.0,-22.88,99,92,2.08,RU,1707193422
245,arteche,12.2645,125.4048,27.89,71,98,5.2,PH,1707193428
246,saynshand,44.8824,110.1163,-16.22,76,5,1.4,MN,1707193429
247,great falls,47.5002,-111.3008,-4.75,92,40,2.57,US,1707193253
248,wangqing,43.3218,129.7634,-5.73,46,100,1.41,CN,1707193430
249,udachny,66.4167,112.4,-19.62,97,100,1.27,RU,1707193430
250,yatou,37.15,122.3833,-0.66,68,0,7.75,CN,1707193430
251,ust-nera,64.5667,143.2,-25.63,87,98,0.66,RU,1707193431
252,speightstown,13.25,-59.65,27.34,84,19,7.73,BB,1707193431
253,dhana,23.75,78.85,19.75,74,23,2.38,IN,1707193431
254,newman,37.3138,-121.0208,11.19,91,99,0.89,US,1707193431
255,pemba,-12.974,40.5178,27.39,89,75,4.63,MZ,1707193432
256,champerico,14.3,-91.9167,26.09,72,0,1.82,GT,1707193432
257,alofi,-19.0595,-169.9187,26.92,71,14,5.19,NU,1707193432
258,kuanda,56.3161,116.0806,-18.85,87,100,0.76,RU,1707193433
259,mawlaik,23.6333,94.4167,24.53,42,53,1.29,MM,1707193433
260,tamanrasset,22.785,5.5228,8.95,27,0,7.2,DZ,1707193433
261,alice springs,-23.7,133.8833,34.56,22,0,5.66,AU,1707193401
262,mccomb,31.2438,-90.4531,10.93,71,0,4.12,US,1707193434
263,khorugh,37.4897,71.553,-13.92,89,80,0.47,TJ,1707193434
264,youghal,51.95,-7.8506,10.56,100,99,10.45,IE,1707193434
265,santa rosalia,27.3167,-112.2833,18.39,41,76,2.74,MX,1707193434
266,robertsport,6.7533,-11.3686,26.02,88,3,1.3,LR,1707193435
267,vadso,70.0744,29.7487,-7.91,86,75,7.72,NO,1707193435
268,nyurba,63.2842,118.3319,-19.65,97,100,1.38,RU,1707193435
269,matelandia,-25.2408,-53.9964,18.82,77,22,1.91,BR,1707193436
270,tanabi,-20.6264,-49.6492,23.12,83,99,2.51,BR,1707193436
271,iron mountain,45.8202,-88.066,3.41,83,100,0.0,US,1707193436
272,thunder bay,48.4001,-89.3168,-0.01,100,100,1.03,CA,1707193405
273,bandarbeyla,9.4942,50.8122,25.26,75,4,5.55,SO,1707193437
274,sumbe,-11.2061,13.8437,26.82,87,99,2.76,AO,1707193437
275,nuuk,64.1835,-51.7216,-12.66,85,75,6.69,GL,1707193438
276,gilgit,35.9221,74.3087,-4.03,70,58,1.41,PK,1707193438
277,iquique,-20.2208,-70.1431,23.3,81,0,0.46,CL,1707192838
278,severnoye,56.3491,78.3619,-4.45,93,95,7.6,RU,1707193438
279,kerikeri,-35.2268,173.9474,25.51,62,16,0.89,NZ,1707193439
280,daru,-9.0763,143.2092,29.59,74,100,2.52,PG,1707193439
281,crane,31.3974,-102.3501,11.39,47,32,3.08,US,1707193440
282,ixtapa,20.7,-105.2,20.57,88,0,0.0,MX,1707193177
283,borogontsy,62.6683,131.1683,-29.85,94,68,0.69,RU,1707193441
284,hamilton,39.1834,-84.5333,1.97,84,100,8.23,US,1707193141
285,huarmey,-10.0681,-78.1522,24.79,79,59,3.24,PE,1707193441
286,sandnessjoen,66.0217,12.6316,-13.71,84,65,6.5,NO,1707193441
287,neropolis,-16.4064,-49.2186,21.01,99,100,1.19,BR,1707193442
288,urkarakh,42.163,47.6307,0.81,45,48,3.25,RU,1707193442
289,gryazi,52.4966,39.9359,-3.23,97,100,2.68,RU,1707193442
290,galich,58.3797,42.3475,-15.6,99,100,1.37,RU,1707193443
291,vyalikaya byerastavitsa,53.196,24.0166,-0.15,98,100,3.22,BY,1707193443
292,augusto correa,-1.0217,-46.635,25.1,93,53,1.6,BR,1707193443
293,juan griego,11.0817,-63.9655,27.07,89,65,6.17,VE,1707193444
294,gobabis,-22.45,18.9667,24.04,51,95,4.07,NA,1707193444
295,saipan,15.1355,145.701,29.39,61,20,6.17,MP,1707193444
296,dakhla,23.6848,-15.958,19.06,40,59,6.47,EH,1707193445
297,hojai,26.0,92.8667,19.08,65,61,2.61,IN,1707193445
298,sargatskoye,55.6101,73.4972,-0.79,94,100,7.44,RU,1707193445
299,miasskoye,55.2784,61.8905,-6.74,96,92,3.91,RU,1707193446
300,jolo,6.05,121.0167,27.75,77,87,3.36,PH,1707193446
301,gadzhiyevo,69.2551,33.3362,-17.93,100,100,4.13,RU,1707193446
302,fale old settlement,-9.3852,-171.2468,28.38,81,100,14.68,TK,1707193446
303,poronaysk,49.2167,143.1167,-12.42,81,12,1.12,RU,1707193447
304,atherton,53.5237,-2.4935,11.13,85,99,3.58,GB,1707193447
305,weno,7.4515,151.8468,30.97,58,100,6.17,FM,1707193447
306,brookings,44.3114,-96.7984,2.43,90,0,6.17,US,1707193151
307,freetown,8.484,-13.2299,23.47,82,0,1.73,SL,1707193448
308,aykhal,66.0,111.5,-19.15,97,100,1.58,RU,1707193448
309,nova sintra,14.8667,-24.7167,20.82,66,0,5.26,CV,1707193448
310,lysyye gory,51.5506,44.8414,-5.62,92,98,7.06,RU,1707193231
311,egilsstadir,65.2653,-14.3948,-7.05,63,75,3.09,IS,1707193449
312,mildura,-34.2,142.15,26.15,29,0,8.59,AU,1707193085
313,greenland,43.0362,-70.8328,0.62,59,100,3.6,US,1707193450
314,tolanaro,-25.0319,46.9987,25.04,83,20,6.17,MG,1707193450
315,dalbandin,28.8947,64.4101,11.15,29,0,2.4,PK,1707193450
316,pundong,-7.9522,110.3486,26.91,79,100,1.02,ID,1707193450
317,kourou,5.1552,-52.6478,27.03,92,94,3.85,GF,1707193451
318,odda,60.0691,6.5457,-1.79,85,99,3.37,NO,1707193451
319,melchor de mencos,17.0686,-89.1522,23.0,68,0,3.09,GT,1707193452
320,sal rei,16.1833,-22.9167,22.91,67,0,6.04,CV,1707193452
321,flin flon,54.7682,-101.865,-5.57,93,100,4.61,CA,1707193453
322,holualoa,19.6228,-155.9522,22.91,84,40,2.06,US,1707193453
323,stung treng,13.5259,105.9683,35.04,38,1,1.95,KH,1707193453
324,saint croix,17.7397,-64.7388,27.25,88,75,3.09,VI,1707193454
325,st ives,50.2086,-5.4875,11.18,87,98,11.77,GB,1707193454
326,lompoc,34.6391,-120.4579,12.4,88,100,3.6,US,1707193454
327,uturoa,-16.7333,-151.4333,28.19,78,100,6.06,PF,1707193412
328,acapulco de juarez,16.8634,-99.8901,24.9,83,20,1.54,MX,1707193455
329,lukoyanov,55.0277,44.4786,-7.46,94,100,5.1,RU,1707193455
330,nogliki,51.8333,143.1667,-13.14,77,22,4.02,RU,1707193455
331,antsiranana,-12.2787,49.2917,26.42,83,20,3.09,MG,1707193456
332,vilyuchinsk,52.9306,158.4028,-3.85,71,80,2.34,RU,1707193456
333,vytegra,61.0064,36.4481,-20.36,99,100,1.79,RU,1707193158
334,san martin,-33.081,-68.4681,30.3,54,10,5.1,AR,1707193456
335,homa bay,-0.5273,34.4571,19.0,78,39,1.9,KE,1707193457
336,manokwari,-0.8667,134.0833,28.31,77,100,5.23,ID,1707193457
337,kudat,6.8837,116.8477,28.96,74,20,2.57,MY,1707193457
338,lubao,14.9167,120.55,33.04,39,2,4.3,PH,1707193458
339,soio,-6.1349,12.3689,26.15,85,100,1.19,AO,1707193458
340,roseburg,43.2165,-123.3417,7.64,98,100,0.0,US,1707193458
341,nar'yan-mar,67.6713,53.087,-18.83,97,100,1.79,RU,1707193458
342,gargalianoi,37.0667,21.6333,9.09,81,0,3.92,GR,1707193459
343,abepura,-2.6333,140.5833,31.45,66,40,4.12,ID,1707193459
344,saldanha,-33.0117,17.9442,19.03,97,54,1.69,ZA,1707193459
345,tefe,-3.3542,-64.7114,23.68,97,76,0.74,BR,1707193243
346,namdrik,5.5994,168.1028,28.19,74,72,7.26,MH,1707193460
347,prado,-17.3411,-39.2208,24.75,91,66,2.19,BR,1707193460
348,quellon,-43.1167,-73.6167,12.57,92,90,1.59,CL,1707193460
349,ivins,37.1686,-113.6794,13.4,66,90,1.87,US,1707193461
350,okha,53.5739,142.9478,-18.11,89,33,6.49,RU,1707193461
351,urumqi,43.801,87.6005,-15.47,85,75,1.0,CN,1707193349
352,roma,43.2128,-75.4557,-1.85,63,0,2.57,US,1707193462
353,east london,-33.0153,27.9116,22.52,100,100,1.03,ZA,1707193462
354,forster,-32.1667,152.5167,26.32,83,29,5.38,AU,1707193462
355,genhe,50.7833,121.5167,-12.6,74,18,1.19,CN,1707193462
356,kuqa,41.7278,82.9364,-2.3,64,21,0.2,CN,1707193376
357,puerto el triunfo,13.2833,-88.55,25.63,78,22,2.24,SV,1707193463
358,bonthe,7.5264,-12.505,24.4,90,0,1.07,SL,1707193463
359,javea,38.7833,0.1667,11.58,82,100,0.45,ES,1707193464
360,ouarzazat,30.9189,-6.8934,4.16,30,0,1.54,MA,1707193464
361,jilib,0.4883,42.7854,25.41,85,69,2.07,SO,1707193464
362,kone,-21.0595,164.8658,27.68,82,100,2.82,NC,1707193464
363,floridablanca,7.0622,-73.0864,22.18,100,75,0.0,CO,1707193465
364,bubaque,11.2833,-15.8333,26.17,63,0,3.95,GW,1707193448
365,deqen,29.9618,90.7188,1.3,11,6,7.8,CN,1707193466
366,gorodishche,48.8045,44.4744,-1.51,86,100,6.0,RU,1707193466
367,paliseul,49.904,5.1354,6.66,92,100,5.1,BE,1707193466
368,elliot lake,46.3834,-82.6331,-0.42,83,100,1.33,CA,1707193466
369,catia la mar,10.6038,-67.0303,27.11,78,97,1.54,VE,1707193467
370,nadym,65.5333,72.5167,-16.27,94,100,7.58,RU,1707193467
371,rongelap,11.1635,166.8941,26.64,82,100,8.26,MH,1707193468
372,howard springs,-12.497,131.047,34.99,73,37,4.56,AU,1707193468
373,barah,13.7,30.3667,14.25,18,25,5.33,SD,1707193468
374,montepuez,-13.1256,38.9997,21.46,99,100,2.16,MZ,1707193469
375,skelleftea,64.7507,20.9528,-9.8,98,100,3.09,SE,1707193469
376,port saint john's,-31.6229,29.5448,22.39,90,1,2.32,ZA,1707193469
377,teknaf,20.8624,92.3058,25.97,42,0,3.29,BD,1707193470
378,bam,29.106,58.357,9.66,26,0,1.4,IR,1707193470
379,hadibu,12.65,54.0333,24.82,72,3,2.59,YE,1707193470
380,arcachon,44.5875,-1.0519,8.03,93,100,1.54,FR,1707193471
381,hojo,33.9766,132.7777,11.38,54,20,4.12,JP,1707193471
382,boa vista,2.8197,-60.6733,29.99,54,0,3.6,BR,1707193471
383,box elder,41.5005,-112.8764,6.25,82,100,6.51,US,1707193472
384,guanica,17.9716,-66.908,27.99,73,51,3.92,PR,1707193472
385,karrapur,23.95,78.85,19.6,72,31,2.43,IN,1707193473
386,sultanah,24.4926,39.5857,13.25,22,0,3.6,SA,1707193473
387,klaksvik,62.2266,-6.589,-0.49,64,100,16.5,FO,1707193473
388,la passe,45.5549,-0.8967,6.13,89,100,2.98,FR,1707193474
389,dryden,49.7833,-92.7503,-0.84,100,100,3.09,CA,1707193474
390,seydi,39.4816,62.9137,6.13,55,54,6.72,TM,1707193475
391,port sudan,19.6175,37.2164,19.75,65,97,5.5,SD,1707193475
392,sassandra,4.95,-6.0833,26.72,77,94,1.8,CI,1707193475
393,barranca,-10.75,-77.7667,24.73,75,96,2.76,PE,1707193476
394,nadi,-17.8,177.4167,27.0,89,75,3.09,FJ,1707193476
395,aioun,16.6614,-9.6149,19.02,10,4,5.81,MR,1707193476
396,kailua-kona,19.6406,-155.9956,24.98,84,40,2.06,US,1707193477
397,ellenabad,29.45,74.65,14.21,39,0,2.17,IN,1707193477
398,fortuna,40.5982,-124.1573,9.25,97,100,1.37,US,1707193477
399,el calafate,-50.3408,-72.2768,10.33,68,24,2.24,AR,1707193478
400,kpandu,6.9954,0.2931,24.37,38,7,1.73,GH,1707193478
401,shangrao,28.4532,117.9686,4.65,94,100,2.95,CN,1707193478
402,sadovoye,47.7764,44.5089,-0.09,78,100,9.67,RU,1707193478
403,sao vicente,-23.9631,-46.3919,27.1,26,52,0.45,BR,1707193479
404,rikaze,29.25,88.8833,1.08,19,0,0.94,CN,1707193479
405,santa cruz,-17.8,-63.1667,24.7,88,40,3.09,BO,1707193359
406,canutama,-6.5339,-64.3831,23.2,97,53,0.63,BR,1707193480
407,fredericton,45.9454,-66.6656,-2.53,82,100,7.72,CA,1707193030
408,new kingman-butler,35.265,-114.0323,12.33,55,0,2.06,US,1707193480
409,as sulayyil,20.4607,45.5779,15.14,40,90,3.26,SA,1707193481
410,nantucket,41.2835,-70.0995,2.08,64,100,9.26,US,1707193481
411,san luis,-33.295,-66.3356,26.13,54,31,3.84,AR,1707193265
412,montes claros,-16.735,-43.8617,23.88,88,75,1.03,BR,1707193481
413,al khafji,28.4391,48.4913,14.27,46,0,4.09,SA,1707193220
414,acarau,-2.8856,-40.12,26.99,81,72,6.03,BR,1707193482
415,kodiak,57.79,-152.4072,1.73,75,0,5.66,US,1707193438
416,badnawar,23.0167,75.2167,21.07,47,1,1.62,IN,1707193482
417,rosalie,15.3667,-61.2667,26.08,86,42,7.21,DM,1707193483
418,ulanhot,46.0833,122.0833,-7.22,53,100,1.7,CN,1707193483
419,nicoya,10.1483,-85.452,22.94,93,14,0.89,CR,1707193429
420,carutapera,-1.195,-46.02,26.06,87,51,3.18,BR,1707193484
421,pariaman,-0.619,100.12,31.03,69,100,0.63,ID,1707193484
422,prince rupert,54.3161,-130.3201,3.83,93,0,3.09,CA,1707193412
423,nanlong,31.3533,106.0631,7.45,78,100,1.74,CN,1707193484
424,paka,4.6374,103.4368,30.96,66,20,2.57,MY,1707193485
425,kidal,18.4411,1.4078,14.79,20,100,7.02,ML,1707193485
426,laojunmiao,39.8333,97.7333,-7.17,65,100,3.39,CN,1707193485
427,eilat,29.5581,34.9482,11.91,47,14,0.0,IL,1707193486
428,diourbel,14.6628,-16.3925,20.99,35,0,1.03,SN,1707193486
429,merizo village,13.2658,144.6691,31.31,74,77,7.51,GU,1707193486
430,yarmouth,41.7057,-70.2286,1.65,73,100,10.73,US,1707193486
431,vatra dornei,47.35,25.3667,3.22,91,70,4.47,RO,1707193487
432,galle,6.0367,80.217,27.16,75,58,0.67,LK,1707193487
433,al lagowa,11.4,29.1333,17.92,18,50,5.91,SD,1707193487
434,langsa,4.4683,97.9683,31.21,54,97,1.68,ID,1707193488
435,lai chau,22.3997,103.4517,23.62,37,2,1.84,VN,1707193488
436,muang phonsavan,19.45,103.2167,28.0,16,0,2.22,LA,1707193488
437,jayapura,-2.5333,140.7,31.66,76,100,4.77,ID,1707193430
438,sulechow,52.0836,15.6251,9.28,81,100,7.2,PL,1707193489
439,nguigmi,14.2495,13.1092,16.4,28,17,6.48,NE,1707193489
440,trincomalee,8.5711,81.2335,26.8,66,15,4.83,LK,1707193489
441,jaisalmer,26.9147,70.9181,17.39,27,90,6.09,IN,1707193343
442,igarka,67.4667,86.5833,-23.92,95,74,3.47,RU,1707193490
443,bikin,46.8161,134.26,-13.0,82,78,1.53,RU,1707193490
444,ntoum,0.3833,9.7833,24.87,95,76,0.84,GA,1707193490
445,kanina khas,28.3333,76.3167,13.71,43,35,1.63,IN,1707193491
446,pandhana,21.7,76.2167,24.4,48,1,3.1,IN,1707193491
447,olovyannaya,50.95,115.5667,-17.78,90,50,1.3,RU,1707193491
448,grand falls-windsor,48.9332,-55.6649,-0.28,95,100,8.79,CA,1707193491
449,portland,45.5234,-122.6762,9.27,93,100,2.57,US,1707193021
450,ola,59.5833,151.2833,-14.92,75,100,4.03,RU,1707193492
451,mhango,-3.2833,32.85,17.21,91,30,0.72,TZ,1707193492
452,alghero,40.5589,8.3181,11.05,93,0,1.54,IT,1707193492
453,hepo,23.4308,115.8299,16.56,81,100,1.44,CN,1707193493
454,san antonio de pale,-1.4014,5.6325,27.75,76,100,2.01,GQ,1707193493
455,bata,1.8639,9.7658,25.98,88,51,1.37,GQ,1707193493
456,formosa do rio preto,-11.0483,-45.1931,20.8,92,72,1.87,BR,1707193494
457,yorkton,51.2167,-102.4677,-0.09,93,100,4.12,CA,1707193494
458,nova vicosa,-17.8919,-39.3719,24.82,91,97,2.25,BR,1707193494
459,chonchi,-42.6128,-73.8092,15.07,92,95,0.91,CL,1707193495
460,west valley,46.5921,-120.6051,5.29,92,100,0.0,US,1707193495
461,corinto,37.9407,22.9573,11.95,65,0,3.75,GR,1707193495
462,tobelo,1.7284,128.0095,27.61,80,100,3.4,ID,1707193228
463,konarka,19.9,86.1167,27.22,67,0,5.53,IN,1707193496
464,brisas de zicatela,15.8369,-97.0419,25.05,80,21,1.81,MX,1707193496
465,agudos,-22.4692,-48.9875,23.41,80,99,1.02,BR,1707193201
466,yuncheng,35.0231,110.9928,1.75,68,95,1.54,CN,1707193497
467,chudniv,50.052,28.1175,0.57,100,100,2.31,UA,1707193497
468,yasnyy,51.0333,59.8742,0.01,86,100,10.62,RU,1707193497
469,lohogaon,18.6,73.9167,26.45,47,0,2.08,IN,1707193498
470,bikenibeu village,1.3673,173.1241,30.98,66,75,2.06,KI,1707193498
471,umm kaddadah,13.6017,26.6876,14.33,18,13,8.52,SD,1707193498
472,puli,23.9664,120.9695,21.03,62,26,2.62,TW,1707193499
473,geraldton,-28.7667,114.6,35.23,12,41,8.75,AU,1707193499
474,launceston,-41.45,147.1667,22.97,28,40,3.09,AU,1707193499
475,minot,48.2325,-101.2963,2.06,93,75,1.54,US,1707193500
476,watsa,3.0372,29.5355,17.55,88,33,0.53,CD,1707193500
477,nieuw amsterdam,5.8833,-55.0833,26.09,88,67,4.68,SR,1707193500
478,suva,-18.1416,178.4415,28.71,79,75,3.09,FJ,1707193500
479,sakaiminato,35.55,133.2333,6.99,65,75,2.57,JP,1707193501
480,chibougamau,49.9168,-74.3659,-18.21,85,0,1.03,CA,1707193501
481,kajiado,-1.8524,36.7768,14.97,79,59,3.0,KE,1707193501
482,westport,41.1415,-73.3579,1.29,46,0,4.12,US,1707193491
483,colonia menno,-22.3667,-59.8167,28.06,52,94,3.83,PY,1707193502
484,pithoro,25.5167,69.3833,21.34,41,100,0.57,PK,1707193502
485,lenino,45.2986,35.7771,5.21,72,71,8.56,UA,1707193503
486,wagar,16.1525,36.2032,17.73,75,38,6.06,SD,1707193503
487,manay,7.215,126.5397,25.74,84,100,3.24,PH,1707193503
488,minab,27.1467,57.0801,17.72,51,3,0.66,IR,1707193504
489,vanimo,-2.6741,141.3028,29.83,73,99,4.84,PG,1707193504
490,alaghsas,17.0187,8.0168,16.62,16,100,8.53,NE,1707193504
491,itoman,26.1247,127.6694,21.43,58,40,5.66,JP,1707193505
492,ardestan,33.3761,52.3694,5.97,38,100,3.27,IR,1707193505
493,necochea,-38.5473,-58.7368,21.0,64,51,6.37,AR,1707193505
494,vilyuysk,63.7553,121.6247,-26.67,95,97,1.79,RU,1707193506
495,baiti,13.745,-14.7482,24.47,13,0,2.34,SN,1707193506
496,maxixe,-23.8597,35.3472,23.62,92,6,2.16,MZ,1707193506
497,bardsir,29.9227,56.5743,1.81,22,0,2.56,IR,1707193507
498,oxapampa,-10.5775,-75.4017,15.37,96,60,1.41,PE,1707193507
499,taroa,8.7058,171.2275,27.34,77,99,7.3,MH,1707193507
500,mitchell,43.7094,-98.0298,2.08,87,0,5.14,US,1707193380
501,minas de marcona,-15.2119,-75.1103,19.7,86,76,2.82,PE,1707193508
502,oyem,1.5995,11.5793,19.95,97,21,0.93,GA,1707193508
503,usinsk,65.9939,57.5281,-24.4,97,100,0.89,RU,1707193460
504,antofagasta,-23.65,-70.4,23.6,76,9,0.64,CL,1707193509
505,fontanelas,38.8472,-9.4372,13.42,90,100,1.49,PT,1707193509
506,gamba,-2.65,10.0,24.52,84,100,2.39,GA,1707193509
507,saint-pierre,-21.3393,55.4781,25.82,57,0,2.57,RE,1707193510
508,braganca,-1.0536,-46.7656,23.83,98,54,0.3,BR,1707193510
509,torpoint,50.3751,-4.1957,11.66,96,100,6.26,GB,1707193510
510,labuan bajo,-8.4964,119.8877,29.88,67,91,3.48,ID,1707193511
511,greenville,35.6127,-77.3663,5.09,78,0,3.09,US,1707193378
512,san andres,12.5847,-81.7006,28.01,83,20,2.57,CO,1707193461
513,happy valley-goose bay,53.3168,-60.3315,-13.83,78,75,2.57,CA,1707193512
514,kirkland lake,48.1446,-80.0377,-4.84,93,100,0.51,CA,1707193512
515,kiunga,-6.1219,141.2906,31.68,63,86,1.91,PG,1707193512
516,at taj,24.2049,23.2857,8.3,57,2,3.47,LY,1707193513
517,kristiansund,63.1115,7.732,-4.64,93,64,2.06,NO,1707193513
518,macon,39.8667,-88.9668,0.14,93,0,3.09,US,1707193263
519,hasaki,35.7333,140.8333,5.16,82,100,8.9,JP,1707193513
520,cill airne,52.05,-9.5167,11.3,87,92,6.15,IE,1707193514
521,beatrice,40.2681,-96.747,-0.01,100,0,2.06,US,1707193514
522,puerto baquerizo moreno,-0.9,-89.6,25.29,83,24,4.37,EC,1707193514
523,price,39.5994,-110.8107,2.29,75,75,2.06,US,1707193515
524,oranjemund,-28.55,16.4333,18.21,92,0,1.57,NA,1707193391
525,torre de moncorvo,41.1792,-7.0358,8.17,93,100,0.37,PT,1707193515
526,gaoual,11.75,-13.2,22.88,49,0,0.73,GN,1707193516
527,ostersund,63.1792,14.6357,-8.75,100,100,3.09,SE,1707193516
528,antalaha,-14.9003,50.2788,25.39,90,99,1.55,MG,1707193516
529,menongue,-14.6585,17.691,17.97,94,100,1.31,AO,1707193517
530,chui,-33.6971,-53.4616,20.06,78,75,4.11,UY,1707193517
531,martuk,50.7475,56.5056,0.33,99,100,5.97,KZ,1707193517
532,tarko-sale,64.9225,77.785,-15.73,93,100,8.37,RU,1707193517
533,port macquarie,-31.4333,152.9167,31.05,65,10,4.77,AU,1707193518
534,akot,21.0964,77.0586,26.53,43,2,2.58,IN,1707193518
535,tabarka,36.9544,8.758,7.36,87,20,3.6,TN,1707193518
536,steinbach,50.1667,8.5667,7.64,86,100,7.72,DE,1707193519
537,pagar alam,-4.0167,103.2667,26.51,75,98,1.12,ID,1707193519
538,isangel,-19.55,169.2667,25.35,91,100,3.56,VU,1707193519
539,kabansk,52.0486,106.6528,-10.82,75,100,1.0,RU,1707193520
540,sitia,35.2,26.0986,14.81,70,0,0.55,GR,1707193520
541,rabaul,-4.1967,152.1721,29.54,74,63,6.38,PG,1707193520
542,cabedelo,-6.9811,-34.8339,27.37,80,16,3.94,BR,1707193520
543,andergrove,-21.0833,149.1833,35.36,60,23,4.14,AU,1707193521
544,sainte-suzanne,-20.9061,55.6089,27.1,61,0,4.63,RE,1707193521
545,kodinsk,58.6881,99.1844,-6.98,95,88,1.13,RU,1707193521
546,guatire,10.4762,-66.5427,24.55,76,100,1.24,VE,1707193522
547,flying fish cove,-10.4217,105.6791,28.82,78,40,2.57,CX,1707193522
548,khanty-mansiysk,61.0042,69.0019,-8.94,86,100,0.0,RU,1707193460
549,olinda,-8.0089,-34.8553,27.85,78,20,4.12,BR,1707193522
550,niamey,13.5137,2.1098,21.16,13,98,6.69,NE,1707193343
551,trairi,-3.2778,-39.2689,27.16,79,74,4.53,BR,1707193451
552,vila franca do campo,37.7167,-25.4333,18.27,99,99,6.62,PT,1707193523
553,alesund,62.4723,6.1549,-1.25,91,20,5.14,NO,1707193524
554,tadine,-21.55,167.8833,27.21,76,100,8.44,NC,1707193524
