City_ID,City,Lat,Lng,Max Temp,Humidity,Cloudiness,Wind Speed,Country,Date
0,dampit,-8.2116,112.7493,23.68,96,98,1.02,ID,1713742325
1,beibei,29.8256,106.4339,19.65,94,100,0.48,CN,1713742325
2,papatowai,-46.5619,169.4708,10.03,67,74,7.95,NZ,1713742323
3,mount gambier,-37.8333,140.7667,14.56,55,6,2.41,AU,1713742329
4,waitangi,-43.9535,-176.5597,14.34,87,37,3.13,NZ,1713742330
5,edinburgh of the seven seas,-37.0676,-12.3116,17.19,83,43,8.74,SH,1713742331
6,port-aux-francais,-49.35,70.2167,5.23,73,9,11.4,TF,1713742149
7,georgetown,5.4112,100.3354,27.96,89,20,1.03,MY,1713742214
8,port alfred,-33.5906,26.891,21.77,96,100,2.68,ZA,1713742332
9,blackmans bay,-43.0167,147.3167,14.85,74,14,0.45,AU,1713742332
10,west island,-12.1568,96.8225,26.99,89,75,8.75,CC,1713742298
11,yellowknife,62.456,-114.3525,12.29,37,20,1.54,CA,1713742334
12,aasiaat,68.7098,-52.8699,-0.54,98,100,1.99,GL,1713742334
13,selfoss,63.9331,-20.9971,1.69,75,43,1.45,IS,1713742335
14,keflavik,64.0049,-22.5624,4.95,93,0,2.57,IS,1713742335
15,lihue,21.9789,-159.3672,27.58,66,40,7.2,US,1713742336
16,iguape,-24.7081,-47.5553,20.67,87,0,2.37,BR,1713742336
17,aitape,-3.1374,142.3475,30.18,67,18,1.8,PG,1713742339
18,toropets,56.4978,31.6353,8.46,95,100,5.2,RU,1713742339
19,vengerovo,55.6848,76.7471,6.08,85,36,4.99,RU,1713742340
20,sesheke,-17.4759,24.2968,17.65,46,0,2.11,ZM,1713742340
21,grytviken,-54.2811,-36.5092,3.34,87,90,2.69,GS,1713742340
22,isafjordur,66.0755,-23.124,1.4,84,30,4.93,IS,1713742341
23,abepura,-2.6333,140.5833,28.45,84,20,2.57,ID,1713742343
24,kerikeri,-35.2268,173.9474,20.51,70,14,4.5,NZ,1713742345
25,atafu village,-8.5421,-172.5159,29.36,77,39,4.8,TK,1713742347
26,hirara,24.8,125.2833,26.92,94,75,5.14,JP,1713742347
27,bilibino,68.0546,166.4372,-8.28,59,97,1.26,RU,1713742348
28,itoman,26.1247,127.6694,26.72,98,75,4.63,JP,1713742350
29,puerto natales,-51.7236,-72.4875,2.44,93,86,2.34,CL,1713742350
30,page,36.9147,-111.4558,27.05,12,0,3.13,US,1713742350
31,sontheim an der brenz,48.5523,10.291,3.14,98,100,4.72,DE,1713742352
32,valparaiso,-33.0393,-71.6273,19.52,68,75,4.12,CL,1713742175
33,gulf park estates,30.3919,-88.7611,21.01,43,0,7.2,US,1713742354
34,alliance,40.9153,-81.1059,8.15,66,61,2.17,US,1713742354
35,bethel,41.3712,-73.414,9.64,44,0,3.09,US,1713742160
36,tandalti,13.0167,31.8667,29.72,13,96,4.65,SD,1713742355
37,petropavlovsk-kamchatsky,53.0452,158.6483,4.33,97,20,3.13,RU,1713742355
38,stanley,54.868,-1.6985,4.6,90,75,1.03,GB,1713742355
39,carnarvon,-24.8667,113.6333,22.16,44,0,7.17,AU,1713742187
40,adamstown,-25.066,-130.1015,22.37,72,66,10.43,PN,1713742303
41,polna,49.487,15.7188,0.39,85,32,2.64,CZ,1713742356
42,kourou,5.1552,-52.6478,26.03,93,100,0.99,GF,1713742356
43,new norfolk,-42.7826,147.0587,15.51,61,20,1.53,AU,1713742356
44,bredasdorp,-34.5322,20.0403,15.15,86,47,2.65,ZA,1713742357
45,boyolangu,-8.1181,111.8935,24.85,94,100,1.02,ID,1713742357
46,benguela,-12.5763,13.4055,25.96,85,9,1.64,AO,1713742357
47,broken hill,-31.95,141.4333,19.18,33,0,4.71,AU,1713742358
48,hithadhoo,-0.6,73.0833,28.97,73,100,1.47,MV,1713742359
49,margaret river,-33.95,115.0667,15.93,64,96,7.43,AU,1713742359
50,callao,-12.0667,-77.15,23.16,73,0,4.63,PE,1713742359
51,nogliki,51.8333,143.1667,0.19,97,100,4.47,RU,1713742359
52,vilyuysk,63.7553,121.6247,0.56,100,100,3.58,RU,1713742363
53,ilulissat,69.2167,-51.1,6.01,56,20,5.66,GL,1713742363
54,nova sintra,14.8667,-24.7167,22.77,73,23,6.33,CV,1713742364
55,sur,22.5667,59.5289,26.38,77,0,4.01,OM,1713742366
56,olonkinbyen,70.9221,-8.7187,-4.04,86,98,14.92,SJ,1713742367
57,lerwick,60.1545,-1.1494,8.0,92,100,3.39,GB,1713742367
58,guerrero negro,27.9769,-114.0611,18.2,70,20,7.76,MX,1713742300
59,albany,42.6001,-73.9662,7.42,56,89,1.34,US,1713742320
60,kodiak,57.79,-152.4072,7.73,61,75,3.6,US,1713742371
61,east london,-33.0153,27.9116,23.23,91,100,7.4,ZA,1713742249
62,tekeli,44.83,78.8239,12.58,51,0,4.48,KZ,1713742371
63,eyl,7.9803,49.8164,27.98,75,100,2.39,SO,1713742372
64,kirillov,59.863,38.3813,5.55,70,97,5.49,RU,1713742372
65,port macquarie,-31.4333,152.9167,22.16,66,100,3.58,AU,1713742372
66,port saint john's,-31.6229,29.5448,22.0,88,100,3.76,ZA,1713742372
67,avarua,-21.2078,-159.775,28.03,69,40,4.63,CK,1713742373
68,cedeira,43.6797,-8.0209,12.13,68,5,15.0,ES,1713742373
69,narasannapeta,18.4167,84.05,27.46,64,100,3.93,IN,1713742373
70,juneau,58.3019,-134.4197,14.0,74,75,4.12,US,1713742373
71,barabai,-2.5833,115.3833,24.79,98,100,0.55,ID,1713742374
72,benjamin constant,-4.3831,-70.0311,28.07,89,20,1.03,BR,1713742374
73,buritis,-15.6178,-46.4233,24.98,63,100,0.52,BR,1713741990
74,ribeira grande,38.5167,-28.7,14.32,79,100,3.58,PT,1713742350
75,concepcion,-36.827,-73.0498,13.89,77,100,7.2,CL,1713742338
76,ust-nera,64.5667,143.2,-1.64,86,100,1.17,RU,1713742375
77,stavern,59.0,10.0333,1.4,79,33,6.52,NO,1713742375
78,acarau,-2.8856,-40.12,25.75,89,83,3.61,BR,1713742375
79,kolwezi,-10.7148,25.4667,15.7,90,5,2.2,CD,1713742376
80,miyako,39.6367,141.9525,12.97,63,78,2.26,JP,1713742376
81,nemuro,43.3236,145.575,2.92,90,96,3.92,JP,1713742084
82,saint-philippe,-21.3585,55.7679,22.84,86,6,2.21,RE,1713742359
83,nouadhibou,20.931,-17.0347,19.99,68,1,9.26,MR,1713742376
84,thompson,55.7435,-97.8558,6.09,22,0,2.06,CA,1713742326
85,badger,64.8,-147.5333,14.14,31,0,0.0,US,1713742377
86,horta,38.5333,-28.6333,13.9,79,100,4.47,PT,1713742377
87,namibe,-15.1961,12.1522,25.81,72,78,1.49,AO,1713742377
88,puerto ayora,-0.7393,-90.3518,25.86,96,33,0.89,EC,1713742378
89,vera,-29.4593,-60.2126,22.64,85,90,2.84,AR,1713742378
90,newport,51.5877,-2.9984,7.51,74,90,3.03,GB,1713742379
91,urucara,-2.5364,-57.76,22.93,99,100,0.6,BR,1713742379
92,kingscliff,-28.2667,153.5667,23.89,60,75,7.72,AU,1713742381
93,cannonvale,-20.2833,148.7,22.66,77,32,7.08,AU,1713742381
94,saldanha,-33.0117,17.9442,12.03,92,4,2.26,ZA,1713742381
95,myanaung,18.2833,95.3167,28.97,58,2,0.43,MM,1713742382
96,lapa,-25.7697,-49.7158,15.33,81,0,0.84,BR,1713742383
97,st. john's,47.5649,-52.7093,4.82,95,20,4.63,CA,1713742273
98,nishinoomote,30.7333,131.0,20.26,79,100,8.65,JP,1713742388
99,richards bay,-28.783,32.0377,21.03,95,31,2.25,ZA,1713742388
100,punta arenas,-53.15,-70.9167,7.06,76,0,10.8,CL,1713742389
101,constantia,44.1833,28.65,9.38,84,88,7.95,RO,1713742380
102,afaahiti,-17.75,-149.2833,24.93,76,39,2.47,PF,1713742389
103,jinka,5.65,36.65,16.97,95,100,1.18,ET,1713742389
104,saint-joseph,-21.3667,55.6167,22.28,86,5,0.93,RE,1713742391
105,qaqortoq,60.7167,-46.0333,-0.91,87,63,1.77,GL,1713742376
106,mossel bay,-34.1831,22.146,16.96,90,69,4.17,ZA,1713742391
107,darnah,32.767,22.6367,20.93,46,92,8.52,LY,1713742391
108,hermanus,-34.4187,19.2345,15.2,90,25,3.07,ZA,1713742391
109,marabba,12.35,32.1833,33.08,12,86,5.62,SD,1713742392
110,tazacorte,28.629,-17.9293,19.54,79,100,4.63,ES,1713742394
111,longyearbyen,78.2186,15.6401,1.91,69,75,6.17,SJ,1713742394
112,city of balikpapan,-1.242,116.8942,24.97,88,20,1.54,ID,1713742395
113,tsiombe,-25.3,45.4833,18.22,93,0,1.2,MG,1713742396
114,port elizabeth,-33.918,25.5701,20.17,98,100,0.45,ZA,1713742333
115,college,64.8569,-147.8028,14.18,35,20,0.0,US,1713742396
116,cidade velha,14.9167,-23.6167,22.26,68,20,5.66,CV,1713742398
117,lebu,-37.6167,-73.65,13.28,86,100,5.49,CL,1713742288
118,tolanaro,-25.0319,46.9987,19.97,87,6,1.44,MG,1713742399
119,camacupa,-12.0167,17.4833,17.19,72,74,1.44,AO,1713742399
120,hasaki,35.7333,140.8333,15.22,80,100,3.38,JP,1713742401
121,minas de marcona,-15.2119,-75.1103,16.82,82,12,6.18,PE,1713742402
122,misratah,32.3754,15.0925,18.01,82,96,7.16,LY,1713742402
123,chonchi,-42.6128,-73.8092,7.84,88,100,0.75,CL,1713742294
124,iskateley,67.6803,53.1512,-23.88,100,53,2.24,RU,1713742403
125,lompoc,34.6391,-120.4579,25.08,69,0,4.63,US,1713742403
126,tralee,52.2704,-9.7026,10.31,87,86,0.81,IE,1713742400
127,nolinsk,57.5596,49.9363,8.87,62,67,5.2,RU,1713742405
128,invercargill,-46.4,168.35,11.12,75,78,7.6,NZ,1713742406
129,lautoka,-17.6167,177.4667,31.92,58,75,3.6,FJ,1713742407
130,baijiantan,45.6333,85.1833,16.02,29,0,2.89,CN,1713742410
131,huatabampo,26.8333,-109.6333,30.03,22,100,4.47,MX,1713742412
132,grand falls-windsor,48.9332,-55.6649,6.39,71,22,1.52,CA,1713742241
133,wailua homesteads,22.0669,-159.378,27.24,74,40,7.2,US,1713742412
134,lundazi,-12.2929,33.1782,16.99,85,40,2.64,ZM,1713742414
135,gargalianoi,37.0667,21.6333,15.2,75,100,1.65,GR,1713742414
136,usinsk,65.9939,57.5281,-21.63,89,9,4.02,RU,1713742414
137,maltrata,18.8,-97.2667,18.88,87,47,4.07,MX,1713742415
138,an nuhud,12.7,28.4333,28.39,14,87,4.34,SD,1713742415
139,hawaiian paradise park,19.5933,-154.9731,25.73,84,75,4.63,US,1713742361
140,ushuaia,-54.8,-68.3,6.81,76,40,10.29,AR,1713742297
141,kozyatyn,49.7143,28.8339,4.5,86,100,7.54,UA,1713742416
142,ust-tsilma,65.441,52.1498,-12.44,93,75,3.13,RU,1713742417
143,taroudant,30.4703,-8.877,14.52,89,38,1.7,MA,1713742417
144,usogorsk,63.4106,48.6872,-3.52,96,94,2.02,RU,1713742419
145,sumberpucung,-8.1586,112.4829,23.64,94,89,0.44,ID,1713742420
146,talnakh,69.4865,88.3972,-19.33,97,97,1.82,RU,1713742387
147,coahuayana de hidalgo,18.7,-103.6583,27.42,60,0,2.53,MX,1713742420
148,kingston,17.997,-76.7936,28.53,79,20,8.23,JM,1713741884
149,port moresby,-9.4431,147.1797,29.68,79,40,1.54,PG,1713742230
150,yangambi,0.8102,24.4336,22.07,79,97,1.46,CD,1713742421
151,alice springs,-23.7,133.8833,14.75,63,75,2.06,AU,1713742421
152,swan hill,-35.3378,143.5544,15.9,39,0,1.73,AU,1713742130
153,beichengqu,40.4394,113.1536,10.13,32,37,5.27,CN,1713742423
154,paphos,34.7667,32.4167,14.88,67,0,3.09,CY,1713742424
155,caleta de carquin,-11.0925,-77.6267,20.99,85,60,3.49,PE,1713742424
156,tiksi,71.6872,128.8694,-4.67,95,100,4.65,RU,1713742425
157,san patricio,28.017,-97.5169,22.97,58,79,7.15,US,1713742425
158,la passe,45.5549,-0.8967,7.21,83,9,6.46,FR,1713742427
159,klyuchi,52.2667,79.1667,12.67,81,20,4.02,RU,1713742427
160,kununurra,-15.7667,128.7333,23.99,53,18,2.57,AU,1713742353
161,altai,46.3722,96.2583,-4.71,38,1,2.56,MN,1713742429
162,ascension,30.2169,-90.9001,21.0,51,0,5.66,US,1713742431
163,la sarre,48.8002,-79.1996,-6.83,68,100,5.3,CA,1713742389
164,gamba,-2.65,10.0,24.71,87,91,1.05,GA,1713742431
165,i-n-salah,27.1935,2.4607,27.01,10,8,4.18,DZ,1713742199
166,queenstown,-31.8976,26.8753,19.68,35,100,3.17,ZA,1713742432
167,askino,56.0901,56.5783,12.27,65,61,5.83,RU,1713742432
168,burayevo,55.8407,55.4083,12.25,71,59,5.14,RU,1713742432
169,muridke,31.8025,74.2617,23.01,40,64,3.1,PK,1713742433
170,novodvinsk,64.4165,40.8122,-5.12,95,98,2.82,RU,1713742433
171,ambon,-3.6954,128.1814,30.49,95,40,1.54,ID,1713742433
172,gadzhiyevo,69.2551,33.3362,-13.97,91,45,2.82,RU,1713742326
173,rawson,-43.3002,-65.1023,10.17,55,100,2.83,AR,1713742218
174,anadyr,64.75,177.4833,-9.72,72,100,12.0,RU,1713742293
175,cambria,35.5641,-121.0808,30.69,74,43,5.44,US,1713742361
176,shingu,33.7333,135.9833,17.53,94,100,3.92,JP,1713742434
177,metlili chaamba,32.2667,3.6333,16.52,39,0,5.14,DZ,1713742434
178,arraial do cabo,-22.9661,-42.0278,23.93,70,0,6.25,BR,1713742435
179,enewetak,11.3474,162.3373,28.12,75,82,5.8,MH,1713742396
180,palangkaraya,-2.2,113.8333,25.06,95,99,0.4,ID,1713742435
181,menaka,15.9182,2.4022,31.39,9,0,3.48,ML,1713742435
182,port mathurin,-19.6833,63.4167,26.83,79,100,7.09,MU,1713742375
183,kismayo,-0.3582,42.5454,27.05,84,100,2.85,SO,1713742436
184,la rioja,42.25,-2.5,4.88,85,26,2.46,ES,1713742436
185,sinabang,2.4803,96.3801,27.16,87,100,0.88,ID,1713742436
186,crane,31.3974,-102.3501,15.66,51,100,5.22,US,1713742437
187,san sebastian de la gomera,28.0916,-17.1133,20.77,59,0,2.06,ES,1713742380
188,mersa matruh,31.3525,27.2453,17.11,82,0,2.57,EG,1713742437
189,rio grande,-32.035,-52.0986,20.06,83,84,3.72,BR,1713742285
190,ivdel',60.6911,60.4206,6.77,79,45,1.34,RU,1713742438
191,heunghae,36.1125,129.3522,13.52,83,100,6.39,KR,1713742438
192,udachny,66.4167,112.4,-1.42,95,100,1.89,RU,1713742438
193,kenai,60.5544,-151.2583,9.05,49,100,2.57,US,1713742438
194,lesosibirsk,58.2358,92.4828,-2.27,96,100,5.28,RU,1713742439
195,dronero,44.4657,7.3513,4.47,92,99,1.99,IT,1713742439
196,polyarnyy,69.1989,33.4478,-13.3,88,69,2.71,RU,1713742441
197,nelson bay,-32.7167,152.15,22.22,84,96,2.24,AU,1713742442
198,reggane,26.7158,0.1714,25.39,12,22,5.08,DZ,1713742444
199,el calafate,-50.3408,-72.2768,3.96,76,7,2.46,AR,1713742290
200,mokhsogollokh,61.4681,128.9203,-4.32,96,86,2.71,RU,1713742444
201,midvagur,62.0511,-7.1939,6.46,75,75,4.63,FO,1713742444
202,ancud,-41.8697,-73.8203,7.92,72,100,2.5,CL,1713742446
203,monze,-16.2833,27.4833,17.31,57,0,2.32,ZM,1713742447
204,puerto baquerizo moreno,-0.9,-89.6,25.04,88,56,3.24,EC,1713742226
205,talara,-4.5772,-81.2719,26.42,69,0,5.14,PE,1713742448
206,ravar,31.2656,56.8055,19.76,32,28,1.54,IR,1713742448
207,yeniseysk,58.4497,92.1703,-2.25,92,100,1.34,RU,1713742301
208,ulety,51.3572,112.4849,2.51,96,100,1.95,RU,1713742448
209,gadani,25.1185,66.7299,25.12,82,0,8.34,PK,1713742449
210,rongelap,11.1635,166.8941,27.45,79,72,8.1,MH,1713742449
211,strezhevoy,60.7333,77.5889,-0.02,96,97,3.13,RU,1713742449
212,peniche,39.3558,-9.3811,16.16,93,33,3.11,PT,1713742449
213,zeya,53.75,127.2667,4.71,89,100,4.2,RU,1713742431
214,egilsstadir,65.2653,-14.3948,3.95,60,0,2.57,IS,1713742450
215,hot springs village,34.6655,-93.01,16.95,35,38,1.79,US,1713742164
216,sanok,49.5557,22.2056,4.13,98,100,1.56,PL,1713742450
217,prince albert,53.2001,-105.7677,13.97,35,75,4.63,CA,1713742270
218,markovo,57.3206,107.0881,1.33,88,100,1.94,RU,1713742451
219,vorgashor,67.5833,63.95,-20.63,100,41,3.67,RU,1713742451
220,palikir - national government center,6.9248,158.1611,28.47,84,100,6.69,FM,1713742335
221,bentota,6.4254,79.9948,27.78,78,81,0.3,LK,1713742452
222,pisco,-13.7,-76.2167,23.03,78,0,6.69,PE,1713742454
223,hadibu,12.65,54.0333,27.41,80,30,1.8,YE,1713742168
224,sosnovo-ozerskoye,52.5249,111.5418,2.92,65,100,4.15,RU,1713742454
225,kalmunai,7.4167,81.8167,26.47,89,73,2.93,LK,1713742324
226,yolbasi,37.3889,41.3171,13.56,55,27,2.94,TR,1713742456
227,mersing,2.4312,103.8405,24.95,94,20,1.03,MY,1713742456
228,grabouw,-34.1515,19.0151,13.6,81,28,2.3,ZA,1713742456
229,barranca,-10.75,-77.7667,20.86,82,40,2.76,PE,1713742457
230,akureyri,65.6835,-18.0878,6.96,39,0,7.2,IS,1713742457
231,zonguldak,41.25,31.8333,8.54,71,1,2.35,TR,1713742459
232,hamilton,39.1834,-84.5333,11.36,47,40,4.12,US,1713742238
233,mangrol,21.1167,70.1167,25.3,67,75,5.25,IN,1713742460
234,whitehorse,60.7161,-135.0538,12.43,18,20,6.71,CA,1713742460
235,dazhou,31.2159,107.5009,17.51,82,100,0.37,CN,1713742460
236,sao paulo de olivenca,-3.3783,-68.8725,25.31,90,100,1.16,BR,1713742460
237,krutinka,56.0055,71.5113,5.33,85,77,2.59,RU,1713742462
238,altay,47.8667,88.1167,8.76,34,6,3.26,CN,1713742265
239,prince rupert,54.3161,-130.3201,8.05,95,100,9.26,CA,1713742462
240,peruibe,-24.32,-46.9983,19.47,93,0,1.81,BR,1713742462
241,utrik,11.2278,169.8474,27.32,78,94,8.13,MH,1713742305
242,dompu,-8.5356,118.4622,26.29,93,100,1.4,ID,1713742463
243,urangan,-25.3,152.9,24.0,76,100,4.02,AU,1713742465
244,aginskoye,51.1,114.53,1.89,77,100,8.16,RU,1713742468
245,coquimbo,-29.9533,-71.3436,17.85,77,0,2.06,CL,1713742292
246,berezovyy,51.6667,135.7,3.37,72,82,0.8,RU,1713742468
247,vadso,70.0744,29.7487,-4.91,68,100,8.23,NO,1713742453
248,galesong,-5.3166,119.3661,26.01,83,93,2.21,ID,1713742470
249,bardai,11.65,7.2333,26.99,50,83,5.19,NG,1713742366
250,iqaluit,63.7506,-68.5145,-15.15,72,75,5.66,CA,1713742223
251,puerto deseado,-47.7503,-65.8938,7.24,62,4,1.28,AR,1713742393
252,tamanrasset,22.785,5.5228,22.95,9,40,2.06,DZ,1713742472
253,tazovsky,67.4667,78.7,-23.61,100,93,3.21,RU,1713742396
254,kokopo,-4.352,152.2633,29.54,68,40,2.05,PG,1713742473
255,ishigaki,24.3448,124.1572,28.07,89,75,6.17,JP,1713742473
256,newman,37.3138,-121.0208,29.13,41,3,4.02,US,1713742474
257,san remo,43.8182,7.7612,12.09,80,76,2.24,IT,1713742475
258,jamestown,42.097,-79.2353,5.81,54,0,5.14,US,1713742200
259,taro,-8.3862,115.28,22.0,97,100,0.33,ID,1713742476
260,aykhal,66.0,111.5,0.3,100,100,0.57,RU,1713742476
261,sabha,27.0377,14.4283,28.64,11,100,6.47,LY,1713742477
262,isangel,-19.55,169.2667,28.33,80,93,4.89,VU,1713742477
263,champerico,14.3,-91.9167,29.43,70,5,2.92,GT,1713742477
264,roma,43.2128,-75.4557,7.12,54,100,5.14,US,1713742181
265,sitia,35.2,26.0986,16.66,69,100,2.91,GR,1713742477
266,bela,25.9333,81.9833,28.96,25,100,3.23,IN,1713742478
267,puerto yuca,2.9383,-73.2083,23.54,95,97,1.12,CO,1713742478
268,vila velha,-20.3297,-40.2925,22.97,88,0,1.54,BR,1713742222
269,artur nogueira,-22.5731,-47.1725,24.06,57,0,1.69,BR,1713742478
270,rio gallegos,-51.6226,-69.2181,7.03,65,40,7.72,AR,1713742479
271,ilomantsi,62.6716,30.9328,-2.39,94,97,4.01,FI,1713742479
272,baise city,23.8997,106.6133,21.68,90,75,1.05,CN,1713742479
273,mao,39.8885,4.2658,9.31,76,0,2.06,ES,1713742480
274,yarmouth,41.7057,-70.2286,8.94,70,0,7.72,US,1713742481
275,urucui,-7.2294,-44.5561,28.13,63,100,1.63,BR,1713742481
276,tangjin,36.8944,126.6297,15.9,78,100,3.95,KR,1713742481
277,charters towers,-20.1,146.2667,21.58,56,0,6.72,AU,1713742481
278,fale old settlement,-9.3852,-171.2468,29.74,75,50,4.92,TK,1713742482
279,salalah,17.0151,54.0924,28.05,78,20,1.03,OM,1713742428
280,chinde,26.8418,88.0763,18.42,29,59,2.54,NP,1713742482
281,el colomo,19.05,-104.25,24.99,66,31,3.38,MX,1713742482
282,hanceville,34.0607,-86.7675,16.61,62,25,4.43,US,1713742484
283,lorengau,-2.0226,147.2712,29.82,66,55,3.22,PG,1713742484
284,greymouth,-42.4667,171.2,13.26,79,70,4.56,NZ,1713742484
285,alaghsas,17.0187,8.0168,30.42,19,46,2.99,NE,1713742484
286,san antonio de pale,-1.4014,5.6325,28.96,80,72,2.36,GQ,1713742485
287,bijar,35.8668,47.6051,7.44,75,80,1.35,IR,1713742485
288,el granada,37.5027,-122.4694,29.89,74,0,8.75,US,1713742485
289,ad dilam,23.9915,47.1627,27.23,12,0,3.59,SA,1713742485
290,esperanza,19.5847,-70.9849,27.32,75,26,1.79,DO,1713742486
291,aldan,58.6031,125.3894,1.37,73,88,3.9,RU,1713742486
292,namsos,64.4662,11.4957,2.03,47,2,3.09,NO,1713742486
293,bengkulu,-3.8004,102.2655,25.3,90,97,1.37,ID,1713742486
294,kidal,18.4411,1.4078,31.4,8,2,4.15,ML,1713742191
295,shimokizukuri,40.8061,140.3861,14.73,69,100,2.54,JP,1713742489
296,lagos,6.5833,3.75,25.18,92,91,1.21,NG,1713742204
297,alausi,-2.2,-78.8333,10.62,98,100,1.08,EC,1713742489
298,nagqu,31.5,92.0,-0.65,42,87,1.49,CN,1713742489
299,awjilah,29.1081,21.2869,24.86,21,100,5.94,LY,1713742491
300,divnomorskoye,44.5011,38.1353,12.88,94,2,2.36,RU,1713742491
301,anna regina,7.2644,-58.5077,26.32,74,100,4.1,GY,1713742492
302,idabel,33.8957,-94.8263,18.79,36,14,6.17,US,1713742492
303,keetmanshoop,-26.5833,18.1333,23.51,28,9,0.51,NA,1713742493
304,alofi,-19.0595,-169.9187,29.94,62,40,4.63,NU,1713742434
305,chibougamau,49.9168,-74.3659,-8.21,62,100,4.63,CA,1713742372
306,shenjiamen,29.9576,122.298,14.19,97,100,2.2,CN,1713742493
307,khandyga,62.6667,135.6,1.53,95,100,0.82,RU,1713742377
308,stjordalshalsen,63.4681,10.9262,1.62,59,6,4.12,NO,1713742494
309,nar'yan-mar,67.6713,53.087,-23.83,100,51,2.24,RU,1713742294
310,luderitz,-26.6481,15.1594,17.57,69,30,2.69,NA,1713742494
311,bodaybo,57.8506,114.1933,2.91,96,100,1.17,RU,1713742495
312,nuuk,64.1835,-51.7216,2.34,93,100,13.38,GL,1713742435
313,susuman,62.7833,148.1667,-9.45,88,93,0.89,RU,1713742337
314,de panne,51.0792,2.5917,7.23,85,20,2.57,BE,1713742495
315,howrah,22.5892,88.3103,31.0,74,40,2.06,IN,1713742495
316,el hadjira,32.6134,5.5126,17.38,43,57,6.56,DZ,1713742496
317,banff,51.1762,-115.5698,6.57,36,100,4.12,CA,1713742471
318,bovolone,45.2548,11.1263,9.58,73,100,6.15,IT,1713742496
319,happy valley-goose bay,53.3168,-60.3315,5.17,81,100,1.54,CA,1713742458
320,kaa-khem,51.6833,94.7333,1.89,45,100,2.3,RU,1713742497
321,thunder bay,48.4001,-89.3168,10.99,16,40,7.72,CA,1713742288
322,masinloc,15.5333,120.05,27.22,47,7,0.67,PH,1713742497
323,trairi,-3.2778,-39.2689,25.15,92,85,2.97,BR,1713742320
324,placido de castro,-10.3353,-67.1856,26.36,84,93,1.4,BR,1713742498
325,kuanda,56.3161,116.0806,2.59,89,86,1.29,RU,1713742498
326,ixtapa,20.7,-105.2,26.57,57,0,4.12,MX,1713742498
327,keta,5.9179,0.9879,25.12,82,72,4.89,GH,1713742498
328,mildura,-34.2,142.15,17.82,68,0,1.49,AU,1713742499
329,angaur state,6.906,134.13,28.38,83,100,9.25,PW,1713742499
330,fort mcmurray,56.7268,-111.381,18.77,16,0,2.57,CA,1713742499
331,skikda,36.8762,6.9092,12.2,76,96,2.24,DZ,1713742499
332,kayyerkan,69.3786,87.7439,-19.28,99,92,1.12,RU,1713742500
333,dunedin,-45.8742,170.5036,10.45,81,44,5.36,NZ,1713742438
334,itamaraca,-7.7478,-34.8256,29.03,87,66,2.83,BR,1713742500
335,kostyantynivka,48.5277,37.7069,8.76,71,5,7.34,UA,1713742500
336,hulan ergi,47.2042,123.6333,17.2,44,60,7.6,CN,1713742503
337,vilyuchinsk,52.9306,158.4028,7.15,85,61,0.86,RU,1713742507
338,paramonga,-10.6667,-77.8333,20.99,85,35,3.0,PE,1713742507
339,poddebice,51.8934,18.9573,2.63,89,82,3.23,PL,1713742507
340,christchurch,-43.5333,172.6333,16.06,72,75,6.17,NZ,1713742508
341,fisterra,42.9049,-9.2629,13.75,53,6,8.11,ES,1713742456
342,veraval,20.9,70.3667,25.04,68,58,5.18,IN,1713742512
343,jaisalmer,26.9147,70.9181,26.68,37,53,3.32,IN,1713742512
344,kajaani,64.2273,27.7285,-6.97,79,53,2.57,FI,1713742513
345,letterkenny,54.95,-7.7333,5.37,85,51,1.07,IE,1713742515
346,hays,30.0502,-98.0336,19.66,58,65,6.61,US,1713742516
347,rouissat,31.9243,5.3502,18.04,55,14,10.29,DZ,1713742516
348,mar del plata,-38.0023,-57.5575,15.61,59,0,5.66,AR,1713742031
349,nikol'sk,53.7189,46.0712,15.63,78,88,4.63,RU,1713742518
350,arvayheer,46.2639,102.775,-3.14,53,94,7.02,MN,1713742518
351,shajiang,26.7825,119.9669,19.17,96,100,1.05,CN,1713742518
352,praia da vitoria,38.7333,-27.0667,17.14,82,75,0.73,PT,1713742521
353,bel ombre,-4.6167,55.4167,26.91,89,75,6.17,SC,1713742521
354,kikwit,-5.041,18.8162,23.99,84,72,1.1,CD,1713742521
355,buka,40.8108,69.1986,18.49,59,78,2.32,UZ,1713742521
356,mejit,10.2753,170.8646,27.52,79,86,7.66,MH,1713742523
357,saint-felicien,48.6501,-72.4491,-0.62,74,75,5.66,CA,1713742523
358,cabo san lucas,22.8909,-109.9124,31.45,54,0,6.1,MX,1713742303
359,severobaykal'sk,55.65,109.3167,-0.27,83,99,1.22,RU,1713742525
360,kuusamo,65.9667,29.1833,-6.98,86,100,2.57,FI,1713742526
361,fort st. john,56.2499,-120.8529,13.94,24,75,10.8,CA,1713742496
362,amga,60.8953,131.9608,1.4,86,66,3.36,RU,1713742526
363,yuzhnoural'sk,54.4418,61.2536,14.9,72,100,6.08,RU,1713742526
364,kiunga,-6.1219,141.2906,25.12,97,100,1.19,PG,1713742443
365,zouerate,22.7187,-12.4521,23.21,25,0,5.09,MR,1713742527
366,tura,25.5198,90.2201,23.89,95,33,3.22,IN,1713742527
367,uliastay,47.7417,96.8444,-3.21,40,6,0.42,MN,1713742528
368,nurota,40.5614,65.6886,18.99,51,5,3.49,UZ,1713742529
369,san lawrenz,36.0553,14.204,14.92,82,88,7.38,MT,1713742529
370,northam,51.0333,-4.2167,6.25,81,92,1.34,GB,1713742532
371,subaykhan,34.8544,40.6083,21.46,36,71,5.55,SY,1713742532
372,shimoda,34.6667,138.95,15.2,94,100,8.63,JP,1713742533
373,mount pearl,47.5166,-52.7813,4.36,95,20,4.63,CA,1713742485
374,penzance,50.1186,-5.5371,8.38,70,75,3.81,GB,1713742533
375,beau vallon,-20.4189,57.6953,25.13,94,75,2.57,MU,1713742470
376,wenchang,30.904,118.4887,17.74,87,75,2.84,CN,1713742534
377,sassandra,4.95,-6.0833,26.71,90,39,2.96,CI,1713742534
378,dryden,49.7833,-92.7503,12.16,32,0,6.17,CA,1713742534
379,dalnegorsk,44.5604,135.5701,8.11,89,100,1.34,RU,1713742535
380,nema,57.5067,50.5011,8.73,62,60,4.34,RU,1713742536
381,canarana,-11.6847,-41.7689,21.88,85,89,3.6,BR,1713742537
382,chernogorsk,53.8236,91.2842,3.76,93,40,5.0,RU,1713742538
383,sinazongwe,-17.2614,27.4618,21.42,51,0,2.39,ZM,1713742538
384,uturoa,-16.7333,-151.4333,28.6,69,4,0.5,PF,1713742489
385,harrismith,-28.2728,29.1295,12.77,46,30,1.82,ZA,1713742541
386,makar'yev,57.8797,43.8069,9.7,67,89,5.44,RU,1713742542
387,kavaratti,10.5669,72.642,29.63,75,81,4.44,IN,1713742542
388,vila franca do campo,37.7167,-25.4333,18.27,99,100,1.8,PT,1713742543
389,mafinga,-7.25,35.0667,19.46,83,75,1.43,TZ,1713742543
390,miguel pereira,-22.4539,-43.4689,21.08,93,0,1.27,BR,1713742544
391,dudinka,69.4058,86.1778,-19.07,100,94,0.89,RU,1713742536
392,marks,51.7111,46.7486,15.09,76,97,2.76,RU,1713742545
393,mananjary,-21.2167,48.3333,22.87,96,40,2.45,MG,1713742547
394,barcelos,41.5388,-8.6151,18.8,71,15,1.67,PT,1713742534
395,hancheng,32.5186,112.3522,19.26,66,9,1.29,CN,1713742548
396,usol'ye,59.4268,56.6808,4.37,85,81,2.84,RU,1713742548
397,gebeit,21.0667,36.3167,20.32,39,0,1.96,SD,1713742548
398,pestovo,58.5938,35.8024,8.77,76,100,6.02,RU,1713742548
399,oriximina,-1.7656,-55.8661,23.46,95,100,0.73,BR,1713742269
400,hassleholm,56.1591,13.7664,0.75,90,100,1.7,SE,1713742550
401,salinopolis,-0.6136,-47.3561,26.4,85,100,3.14,BR,1713742550
402,labrador city,52.9463,-66.9114,-1.05,55,40,3.09,CA,1713742551
403,ingeniero guillermo n. juarez,-23.9,-61.85,30.36,53,88,7.52,AR,1713742552
404,ulricehamn,57.7916,13.4142,-1.7,63,76,2.39,SE,1713742553
405,waddan,29.1614,16.139,28.47,11,93,5.57,LY,1713742553
406,muisne,0.6,-80.0333,25.48,87,96,3.56,EC,1713742554
407,lawrenceburg,38.0373,-84.8966,11.32,44,83,4.02,US,1713742476
408,unecha,52.8459,32.6739,8.6,86,68,7.41,RU,1713742555
409,aldama,22.9167,-98.0667,22.66,74,84,8.87,MX,1713742555
410,petrovsk-zabaykal'skiy,51.273,108.843,1.33,71,100,5.34,RU,1713742556
411,kone,-21.0595,164.8658,25.19,84,100,0.74,NC,1713742556
412,traralgon,-38.1833,146.5333,15.36,63,25,0.18,AU,1713742556
413,ta`u,-14.2336,-169.5144,29.08,76,58,6.28,AS,1713742557
414,nazare,-13.035,-39.0144,22.96,99,49,1.62,BR,1713742557
415,ghadamis,30.1337,9.5007,22.61,31,63,4.38,LY,1713742557
416,masterton,-40.9597,175.6575,16.6,59,3,2.16,NZ,1713742557
417,vicuna,-30.0319,-70.7081,13.85,74,100,1.03,CL,1713742272
418,kavieng,-2.5744,150.7967,29.99,67,18,3.61,PG,1713742558
419,tindouf,27.6711,-8.1474,21.25,37,27,5.66,DZ,1713742558
420,chesma,53.8111,60.6533,15.13,75,36,4.26,RU,1713742558
421,riachos,39.4447,-8.5142,16.53,62,5,1.71,PT,1713742559
422,kruisfontein,-34.0033,24.7314,18.82,86,100,1.58,ZA,1713742559
423,siwa oasis,29.2041,25.5195,23.01,25,50,4.8,EG,1713742559
424,panama city beach,30.1766,-85.8055,19.47,79,40,3.09,US,1713742498
425,viedma,-40.8135,-62.9967,11.84,61,87,2.88,AR,1713742560
426,canton,23.1167,113.25,21.97,88,100,1.44,CN,1713742560
427,weno,7.4515,151.8468,30.97,79,75,2.06,FM,1713742560
428,island harbour,50.724,-1.2758,8.29,72,6,1.79,GB,1713742497
429,khanty-mansiysk,61.0042,69.0019,-0.94,80,0,3.0,RU,1713742561
430,desaguadero,-16.5656,-69.0417,9.33,56,12,1.48,PE,1713742562
431,miles city,46.4083,-105.8406,22.54,18,0,6.17,US,1713742564
432,perugorria,-29.3413,-58.6106,24.02,73,71,3.77,AR,1713742564
433,ocampo,21.65,-101.5,26.25,11,9,1.38,MX,1713742565
434,bandarbeyla,9.4942,50.8122,27.79,74,100,1.89,SO,1713742565
435,madang,-5.2246,145.7966,29.84,65,52,0.29,PG,1713742565
436,klaksvik,62.2266,-6.589,6.51,83,92,7.79,FO,1713742567
437,portales,34.1862,-103.3344,14.63,51,75,3.44,US,1713742568
438,puerto ayacucho,5.6639,-67.6236,25.8,92,88,3.76,VE,1713742368
439,brisas de zicatela,15.8369,-97.0419,30.29,66,40,2.57,MX,1713742568
440,spas-demensk,54.4122,34.0226,10.74,91,98,4.35,RU,1713742568
441,north battleford,52.7834,-108.2847,11.05,50,100,9.26,CA,1713742570
442,hobyo,5.3505,48.5268,28.66,74,91,2.7,SO,1713742570
443,dalhart,36.0595,-102.5133,17.01,36,20,6.17,US,1713742570
444,pacific grove,36.6177,-121.9166,23.14,75,0,4.63,US,1713742570
445,mugia,43.1041,-9.2179,13.84,57,7,9.64,ES,1713742573
446,lieksa,63.3167,30.0167,-7.87,94,84,4.39,FI,1713742573
447,noosa heads,-26.3833,153.15,22.28,62,100,10.41,AU,1713742573
448,smara,26.7384,-11.6719,16.56,74,1,4.24,EH,1713742573
449,san pedro pochutla,15.7333,-96.4667,31.84,45,2,2.41,MX,1713742574
450,kampong speu,11.5,104.3333,27.17,75,51,2.07,KH,1713742574
451,dourados,-22.2211,-54.8056,25.91,68,86,2.3,BR,1713742455
452,bakchar,57.0186,82.0711,2.39,95,96,5.17,RU,1713742577
453,el quebrachal,-25.2833,-64.0667,23.54,81,22,0.77,AR,1713742579
454,xilitla,21.3333,-98.9667,19.5,95,98,1.99,MX,1713742579
455,porto novo,6.4965,2.6036,25.9,84,85,2.72,BJ,1713742579
456,sakaiminato,35.55,133.2333,14.96,86,98,4.96,JP,1713742580
457,ponta delgada,37.7333,-25.6667,18.44,88,40,2.57,PT,1713742581
458,tugulym,57.0591,64.6425,5.04,82,84,1.93,RU,1713742582
459,thinadhoo,0.5333,72.9333,29.1,72,86,1.3,MV,1713742554
460,zaozersk,69.4005,32.4476,-15.73,95,55,2.39,RU,1713742583
461,ban karon,7.8477,98.2985,31.55,69,86,3.44,TH,1713742583
462,bonthe,7.5264,-12.505,27.16,87,98,1.8,SL,1713742583
463,robbah,33.2797,6.9098,16.8,56,93,9.65,DZ,1713742584
464,magadan,59.5667,150.8,0.29,86,19,0.9,RU,1713742585
465,saipan,15.1355,145.701,28.39,78,40,7.2,MP,1713742437
466,santana,-0.0583,-51.1817,27.1,89,100,0.0,BR,1713742585
467,manicore,-5.8092,-61.3003,23.39,99,99,1.17,BR,1713742585
468,semnan,35.5729,53.3971,19.3,31,100,2.38,IR,1713742586
469,haiku-pauwela,20.9219,-156.3051,27.9,67,40,11.32,US,1713742587
470,nova vicosa,-17.8919,-39.3719,24.51,89,66,5.04,BR,1713742587
471,tromso,69.6496,18.957,-1.99,50,3,9.26,NO,1713742499
472,puerto aysen,-45.4,-72.7,2.28,96,7,0.74,CL,1713742589
473,hammerfest,70.6634,23.6821,-2.75,59,0,5.66,NO,1713742589
474,katsuren-haebaru,26.3369,127.8719,26.72,89,20,5.66,JP,1713742589
475,vikhorevka,56.1201,101.1636,-2.23,81,79,1.58,RU,1713742290
476,playas,-2.6333,-80.3833,25.26,77,55,2.05,EC,1713742430
477,goure,13.9835,10.2704,31.26,11,68,3.53,NE,1713742590
478,altoona,40.5187,-78.3947,8.24,51,68,2.24,US,1713742222
479,sitka,57.0531,-135.33,10.94,66,100,1.54,US,1713742592
480,gizo,-8.103,156.8419,29.73,71,31,0.85,SB,1713742592
481,port douglas,-16.4833,145.4667,25.98,64,84,6.07,AU,1713742593
482,sauk rapids,45.5919,-94.1661,16.99,20,0,3.6,US,1713742594
483,belmonte,-15.8631,-38.8828,24.56,90,26,2.69,BR,1713742594
484,commentry,46.2921,2.7416,-1.99,98,24,1.24,FR,1713742594
485,antofagasta,-23.65,-70.4,20.6,89,20,2.96,CL,1713742322
486,springbok,-29.6643,17.8865,16.69,47,100,1.68,ZA,1713742595
487,tucurui,-3.7661,-49.6725,24.41,95,99,0.82,BR,1713742425
488,keelung,25.1283,121.7419,25.94,79,98,2.67,TW,1713742597
489,clinton,42.587,-82.9199,12.75,43,20,5.14,US,1713742388
490,sakchu-up,40.3894,125.0467,14.18,68,96,1.66,KP,1713742599
491,la ronge,55.1001,-105.2842,12.14,22,20,4.12,CA,1713742600
492,tobelo,1.7284,128.0095,28.34,82,100,2.55,ID,1713742600
493,ati,13.2154,18.3353,30.59,11,3,4.46,TD,1713742601
494,jackson,42.4165,-122.8345,20.4,33,0,2.06,US,1713742601
495,tianshui,34.5439,105.6897,16.32,58,100,0.83,CN,1713742606
496,ulladulla,-35.35,150.4667,18.22,60,1,2.1,AU,1713742608
497,kamina,-8.7386,24.9906,18.35,94,8,1.14,CD,1713742610
498,adrar,20.5022,-10.0711,24.88,20,0,4.93,MR,1713742610
499,zhoucheng,35.9122,116.3117,18.33,47,26,3.68,CN,1713742610
500,kiruna,67.8557,20.2251,-18.49,92,95,2.06,SE,1713742613
501,los osos,35.3111,-120.8324,30.32,46,0,9.77,US,1713742498
502,djibouti,11.5,42.5,25.41,76,100,4.0,DJ,1713742615
503,harstad,68.799,16.5293,-1.03,58,1,4.91,NO,1713742617
504,minot,48.2325,-101.2963,18.12,15,0,7.2,US,1713742618
505,grand gaube,-20.0064,57.6608,25.22,93,66,3.73,MU,1713742619
506,iwaki,37.05,140.8833,16.74,71,100,2.18,JP,1713742619
507,la maddalena,41.2142,9.4083,13.09,74,1,7.29,IT,1713742619
508,castillos,-34.1667,-53.8333,17.92,96,100,4.78,UY,1713742619
509,malabar,-33.9667,151.25,20.63,66,20,2.57,AU,1713742620
510,celestun,20.8667,-90.4,26.35,81,0,7.96,MX,1713742620
511,neryungri,56.6709,124.6491,-2.67,91,85,2.72,RU,1713742620
512,bodo,67.28,14.405,0.99,46,0,8.75,NO,1713742620
513,vrangel',42.7297,133.0839,6.39,83,100,6.88,RU,1713742621
514,cody,44.5263,-109.0565,19.24,27,100,3.6,US,1713742529
515,illizi,26.4833,8.4667,28.89,9,98,3.32,DZ,1713742621
516,yelanskiy,56.8419,62.5014,8.25,69,89,2.31,RU,1713742621
517,papao,-17.75,-149.55,25.82,72,48,1.28,PF,1713742622
518,taitung city,22.7583,121.1444,26.15,69,20,0.51,TW,1713742622
519,margate,51.3813,1.3862,8.16,69,8,4.02,GB,1713742496
520,coyhaique,-45.5752,-72.0662,3.97,65,0,2.06,CL,1713742622
521,lockwood,45.8191,-108.4149,20.79,22,75,5.66,US,1713742623
522,vuktyl,63.8567,57.3094,-4.94,84,77,4.47,RU,1713742623
523,dinghaicun,26.2847,119.7936,19.51,97,99,0.74,CN,1713742623
524,lambari,-21.9756,-45.3503,15.75,86,0,1.0,BR,1713742624
525,kharovsk,59.9642,40.1912,8.96,67,100,5.83,RU,1713742624
526,mount isa,-20.7333,139.5,21.87,43,57,6.69,AU,1713742398
527,santa terezinha,-29.9002,-50.0904,20.71,79,68,2.68,BR,1713742624
528,tonj,7.2737,28.6822,27.68,53,37,2.99,SS,1713742625
529,sodankyla,67.4167,26.6,-15.4,100,91,0.9,FI,1713742625
530,flin flon,54.7682,-101.865,10.91,32,40,1.54,CA,1713742625
531,ende,-8.8432,121.6623,25.79,89,100,2.24,ID,1713742625
532,macon,39.8667,-88.9668,14.03,30,0,5.66,US,1713742577
533,inarajan village,13.2736,144.7484,30.22,82,22,7.53,GU,1713742629
534,realico,-35.0366,-64.2447,17.16,83,100,6.02,AR,1713742629
535,beijing,39.9075,116.3972,13.94,56,10,1.7,CN,1713742500
536,flying fish cove,-10.4217,105.6791,25.82,100,100,4.63,CX,1713742434
537,ormara,25.2088,64.6357,25.88,81,0,8.49,PK,1713742634
538,omdurman,15.6445,32.4777,31.36,10,85,5.39,SD,1713742634
539,eureka,40.8021,-124.1637,22.04,67,100,4.47,US,1713742634
540,alo,7.4178,6.7371,26.32,82,100,0.88,NG,1713742635
541,zalukokoazhe,43.9039,43.2156,14.9,79,94,0.19,RU,1713742635
542,howard springs,-12.497,131.047,27.68,63,95,4.52,AU,1713742384
543,toliara,-23.35,43.6667,20.35,83,0,3.97,MG,1713742553
544,ivanteyevka,55.9711,37.9208,14.29,93,98,2.24,RU,1713742640
545,yuzhno-kurilsk,44.0306,145.8556,2.43,97,100,4.11,RU,1713742640
546,mazyr,52.0495,29.2456,2.48,96,100,7.89,BY,1713742641
547,at taj,24.2049,23.2857,24.66,17,3,4.75,LY,1713742642
548,igarka,67.4667,86.5833,-14.43,96,100,1.34,RU,1713742449
549,alvand,36.3187,49.1678,9.41,68,100,2.52,IR,1713742645
550,magnitka,55.3475,59.6961,12.26,80,93,2.31,RU,1713742646
551,aguilares,-27.4338,-65.6143,23.43,69,5,2.4,AR,1713742647
552,shush,32.1942,48.2436,23.94,37,34,1.39,IR,1713742648
553,la sierpe,2.8518,-77.6155,24.43,94,99,2.19,CO,1713742649
554,galliano,29.4422,-90.2992,22.0,49,0,7.2,US,1713742650
555,gaalkacyo,6.7697,47.4308,25.64,80,99,3.61,SO,1713742650
556,miranda,3.2499,-76.2281,26.07,92,100,0.65,CO,1713742652
557,laramie,41.3114,-105.5911,16.21,16,0,7.72,US,1713742656
558,geraldton,-28.7667,114.6,15.23,82,0,6.17,AU,1713742656
559,bikenibeu village,1.3673,173.1241,29.98,79,40,3.09,KI,1713742365
560,orsa,54.5153,30.4053,11.0,94,100,5.38,BY,1713742657
561,moramanga,-18.9333,48.2,19.44,93,92,0.33,MG,1713742659
562,telerghma,36.1165,6.3543,8.43,91,54,1.62,DZ,1713742660
563,faya-largeau,17.9257,19.1043,28.64,13,0,1.54,TD,1713742660
564,apatity,67.5641,33.4031,-10.19,89,47,3.61,RU,1713742661
565,yoloten,37.2989,62.3597,22.24,23,7,4.25,TM,1713742661
566,remire-montjoly,4.9167,-52.2667,25.02,100,0,0.51,GF,1713742606
567,tchintabaraden,15.8969,5.7985,31.3,27,0,3.62,NE,1713742661
568,sidhpura,27.6333,78.8833,26.39,28,0,2.55,IN,1713742662
569,watsa,3.0372,29.5355,17.71,84,100,1.26,CD,1713742663
570,kapa'a,22.0752,-159.319,27.99,73,40,7.2,US,1713742664
571,kon tum,14.35,108.0,27.48,59,90,0.55,VN,1713742665
572,berdigestyakh,62.0989,126.6992,-0.8,93,99,3.48,RU,1713742666
573,las veredas,23.1388,-109.7075,33.97,31,0,7.72,MX,1713742541
574,kupang,-10.1667,123.5833,28.32,89,20,3.09,ID,1713742666
575,fortuna,40.5982,-124.1573,16.86,73,0,7.72,US,1713742667
576,kurmuk,10.55,34.2833,26.9,51,26,0.71,SD,1713742667
577,brookings,44.3114,-96.7984,15.21,21,0,5.66,US,1713742638
578,tadine,-21.55,167.8833,23.83,93,100,6.79,NC,1713742667
579,glace bay,46.1969,-59.957,9.38,61,75,1.03,CA,1713742668
580,lashio,22.9333,97.75,21.71,53,9,0.37,MM,1713742668
581,contamana,-7.3333,-75.0167,25.38,86,99,1.2,PE,1713742668
582,tabou,4.423,-7.3528,27.49,85,91,3.47,CI,1713742669
583,debre mark'os,10.35,37.7333,16.15,29,100,2.43,ET,1713742670
584,tyuratam,45.6507,63.3156,18.4,25,97,7.19,KZ,1713742672
585,donskoy,53.9711,38.3363,13.69,85,99,5.21,RU,1713742673
586,amarante do maranhao,-5.5667,-46.7422,23.09,96,93,1.21,BR,1713742676
587,porangatu,-13.4408,-49.1486,25.96,75,98,0.47,BR,1713742678
588,zhigalovo,54.8097,105.1578,1.02,85,100,1.5,RU,1713742678
589,poyarkovo,49.6,128.6833,12.22,45,89,9.74,RU,1713742678
590,rustaq,23.3908,57.4244,25.62,52,0,0.77,OM,1713742679
591,marsh harbour,26.5412,-77.0636,24.39,72,0,6.27,BS,1713742577
592,chipinge,-20.1883,32.6236,13.71,68,0,1.51,ZW,1713742681
593,medina,24.4686,39.6142,26.24,12,0,2.06,SA,1713742168
